{
"type": "FeatureCollection",
"name": "school",
"crs": { "type": "name", "properties": { "name": "urn:ogc:def:crs:OGC:1.3:CRS84" } },
"features": [
{ "type": "Feature", "properties": { "name": "西南大学附属中学(本部)", "lon": 106.42772, "lat": 29.83701, "area": "北碚区", "address": "重庆市北碚区杜家街43号", "url": "" }, "geometry": { "type": "Point", "coordinates": [ 106.42772, 29.83701 ] } },
{ "type": "Feature", "properties": { "name": "重庆市兼善中学", "lon": 106.44145, "lat": 29.8188, "area": "北碚区", "address": "重庆市北碚区毛背沱137号", "url": "" }, "geometry": { "type": "Point", "coordinates": [ 106.44145, 29.8188 ] } },
{ "type": "Feature", "properties": { "name": "重庆市江北中学校(本部校区)", "lon": 106.49576, "lat": 29.78988, "area": "北碚区", "address": "重庆市北碚区新华路171号", "url": "" }, "geometry": { "type": "Point", "coordinates": [ 106.49576, 29.78988 ] } },
{ "type": "Feature", "properties": { "name": "重庆市朝阳中学(北校区)", "lon": 106.44028, "lat": 29.82423, "area": "北碚区", "address": "重庆市北碚区嘉陵村1号", "url": "" }, "geometry": { "type": "Point", "coordinates": [ 106.44028, 29.82423 ] } },
{ "type": "Feature", "properties": { "name": "重庆市王朴中学校", "lon": 106.55925, "lat": 29.88946, "area": "北碚区", "address": "重庆市北碚区桥亭街6号", "url": "" }, "geometry": { "type": "Point", "coordinates": [ 106.55925, 29.88946 ] } },
{ "type": "Feature", "properties": { "name": "重庆四十八中学校", "lon": 106.37184, "lat": 29.77098, "area": "北碚区", "address": "重庆市北碚区双凤桥27号（六九〇五工厂医院斜对面）", "url": "" }, "geometry": { "type": "Point", "coordinates": [ 106.37184, 29.77098 ] } },
{ "type": "Feature", "properties": { "name": "重庆市第一中学校-西门", "lon": 106.45849, "lat": 29.5628, "area": "沙坪坝区", "address": "重庆市沙坪坝区沙坪坝南街2号", "url": "" }, "geometry": { "type": "Point", "coordinates": [ 106.45849, 29.5628 ] } },
{ "type": "Feature", "properties": { "name": "南开中学-东门", "lon": 106.45796, "lat": 29.56374, "area": "沙坪坝区", "address": "重庆市沙坪坝区沙坪坝南街1号", "url": "" }, "geometry": { "type": "Point", "coordinates": [ 106.45796, 29.56374 ] } },
{ "type": "Feature", "properties": { "name": "重庆八中(沙坪坝站东路)", "lon": 106.46128, "lat": 29.55674, "area": "沙坪坝区", "address": "重庆市沙坪坝区小龙坎正街96号附3号4-1", "url": "" }, "geometry": { "type": "Point", "coordinates": [ 106.46128, 29.55674 ] } },
{ "type": "Feature", "properties": { "name": "重庆市凤鸣山中学", "lon": 106.44474, "lat": 29.53126, "area": "沙坪坝区", "address": "重庆市沙坪坝区凤天大道150号", "url": "" }, "geometry": { "type": "Point", "coordinates": [ 106.44474, 29.53126 ] } },
{ "type": "Feature", "properties": { "name": "重庆市第七中学校", "lon": 106.45988, "lat": 29.57387, "area": "沙坪坝区", "address": "重庆市沙坪坝区沙坪坝北街94号", "url": "" }, "geometry": { "type": "Point", "coordinates": [ 106.45988, 29.57387 ] } },
{ "type": "Feature", "properties": { "name": "重庆市青木关中学校", "lon": 106.29639, "lat": 29.67562, "area": "沙坪坝区", "address": "重庆市沙坪坝区青木关镇新青路315号", "url": "" }, "geometry": { "type": "Point", "coordinates": [ 106.29639, 29.67562 ] } },
{ "type": "Feature", "properties": { "name": "重庆市天星桥中学", "lon": 106.44798, "lat": 29.54644, "area": "沙坪坝区", "address": "重庆市沙坪坝区天星桥正街82号", "url": "" }, "geometry": { "type": "Point", "coordinates": [ 106.44798, 29.54644 ] } },
{ "type": "Feature", "properties": { "name": "重庆市三十二中(高中部)", "lon": 106.43744, "lat": 29.6104, "area": "沙坪坝区", "address": "重庆市沙坪坝区212国道工农坡22号", "url": "" }, "geometry": { "type": "Point", "coordinates": [ 106.43744, 29.6104 ] } },
{ "type": "Feature", "properties": { "name": "重庆市第一实验中学校", "lon": 106.28992, "lat": 29.58479, "area": "沙坪坝区", "address": "重庆市沙坪坝区大学城南二路750号", "url": "" }, "geometry": { "type": "Point", "coordinates": [ 106.28992, 29.58479 ] } },
{ "type": "Feature", "properties": { "name": "重庆巴蜀科学城中学", "lon": 106.28193, "lat": 29.59901, "area": "沙坪坝区", "address": "重庆市沙坪坝区虎溪街道学智路789号", "url": "" }, "geometry": { "type": "Point", "coordinates": [ 106.28193, 29.59901 ] } },
{ "type": "Feature", "properties": { "name": "重庆市树人中学校", "lon": 106.4442, "lat": 29.56729, "area": "沙坪坝区", "address": "重庆市沙坪坝区小杨公桥118号", "url": "" }, "geometry": { "type": "Point", "coordinates": [ 106.4442, 29.56729 ] } },
{ "type": "Feature", "properties": { "name": "重庆37中A区", "lon": 106.47977, "lat": 29.47523, "area": "大渡口区", "address": "重庆市大渡口区钢花路874号", "url": "" }, "geometry": { "type": "Point", "coordinates": [ 106.47977, 29.47523 ] } },
{ "type": "Feature", "properties": { "name": "重庆市田家炳中学(B区)", "lon": 106.42937, "lat": 29.46775, "area": "九龙坡区", "address": "重庆市九龙坡区田坝新村65号", "url": "" }, "geometry": { "type": "Point", "coordinates": [ 106.42937, 29.46775 ] } },
{ "type": "Feature", "properties": { "name": "重庆育才中学(谢家湾校区)", "lon": 106.51081, "lat": 29.52213, "area": "九龙坡区", "address": "重庆市九龙坡区谢家湾正街92号", "url": "" }, "geometry": { "type": "Point", "coordinates": [ 106.51081, 29.52213 ] } },
{ "type": "Feature", "properties": { "name": "重庆外国语学校", "lon": 106.47723, "lat": 29.53597, "area": "九龙坡区", "address": "重庆市九龙坡区红育坡1号", "url": "" }, "geometry": { "type": "Point", "coordinates": [ 106.47723, 29.53597 ] } },
{ "type": "Feature", "properties": { "name": "重庆市铁路中学校", "lon": 106.52888, "lat": 29.49137, "area": "九龙坡区", "address": "重庆市九龙坡区邮电路重庆电力高等专科学校北侧约70米", "url": "" }, "geometry": { "type": "Point", "coordinates": [ 106.52888, 29.49137 ] } },
{ "type": "Feature", "properties": { "name": "杨家坪中学(彩云湖校区)", "lon": 106.47547, "lat": 29.51709, "area": "九龙坡区", "address": "重庆市九龙坡区科城路139号", "url": "" }, "geometry": { "type": "Point", "coordinates": [ 106.47547, 29.51709 ] } },
{ "type": "Feature", "properties": { "name": "重庆市渝西中学", "lon": 106.31039, "lat": 29.30173, "area": "九龙坡区", "address": "重庆市九龙坡区永安路6号", "url": "" }, "geometry": { "type": "Point", "coordinates": [ 106.31039, 29.30173 ] } },
{ "type": "Feature", "properties": { "name": "重庆市渝高中学校", "lon": 106.48324, "lat": 29.53142, "area": "九龙坡区", "address": "重庆市九龙坡区科园三街27号渝高公园旁", "url": "" }, "geometry": { "type": "Point", "coordinates": [ 106.48324, 29.53142 ] } },
{ "type": "Feature", "properties": { "name": "巴蜀中学", "lon": 106.55844, "lat": 29.56509, "area": "渝中区", "address": "重庆市渝中区北区路51号(近黄花园大桥)", "url": "" }, "geometry": { "type": "Point", "coordinates": [ 106.55844, 29.56509 ] } },
{ "type": "Feature", "properties": { "name": "重庆市求精中学校教育集团", "lon": 106.54349, "lat": 29.56594, "area": "渝中区", "address": "重庆市渝中区中山四路重庆市渝中区德精小学校", "url": "" }, "geometry": { "type": "Point", "coordinates": [ 106.54349, 29.56594 ] } },
{ "type": "Feature", "properties": { "name": "复旦中学", "lon": 106.57307, "lat": 29.554, "area": "渝中区", "address": "重庆市渝中区凯旋路22号", "url": "" }, "geometry": { "type": "Point", "coordinates": [ 106.57307, 29.554 ] } },
{ "type": "Feature", "properties": { "name": "重庆二十九中学(解放碑校区)", "lon": 106.56921, "lat": 29.56112, "area": "渝中区", "address": "重庆市渝中区邹容路143号", "url": "" }, "geometry": { "type": "Point", "coordinates": [ 106.56921, 29.56112 ] } },
{ "type": "Feature", "properties": { "name": "巴蜀中学(张家花园校区)", "lon": 106.55388, "lat": 29.56066, "area": "渝中区", "address": "重庆市渝中区大溪沟人和街华福巷52号", "url": "" }, "geometry": { "type": "Point", "coordinates": [ 106.55388, 29.56066 ] } },
{ "type": "Feature", "properties": { "name": "重庆第三十中学校(长江一路)", "lon": 106.54124, "lat": 29.55362, "area": "渝中区", "address": "重庆市渝中区长江一路13号", "url": "" }, "geometry": { "type": "Point", "coordinates": [ 106.54124, 29.55362 ] } },
{ "type": "Feature", "properties": { "name": "重庆市第八中学校(渝北校区)", "lon": 106.59545, "lat": 29.73056, "area": "渝北区", "address": "重庆市渝北区中央公园北路8号", "url": "" }, "geometry": { "type": "Point", "coordinates": [ 106.59545, 29.73056 ] } },
{ "type": "Feature", "properties": { "name": "重庆市渝北中学校-东北门", "lon": 106.6282, "lat": 29.75917, "area": "渝北区", "address": "重庆市渝北区桃源大道888号", "url": "" }, "geometry": { "type": "Point", "coordinates": [ 106.6282, 29.75917 ] } },
{ "type": "Feature", "properties": { "name": "重庆市松树桥中学校龙溪校区(A校区)", "lon": 106.50777, "lat": 29.59046, "area": "渝北区", "address": "重庆市渝北区松桥路169号", "url": "" }, "geometry": { "type": "Point", "coordinates": [ 106.50777, 29.59046 ] } },
{ "type": "Feature", "properties": { "name": "重庆市暨华中学校", "lon": 106.61963, "lat": 29.71574, "area": "渝北区", "address": "重庆市渝北区双龙湖街道龙吉街98号", "url": "" }, "geometry": { "type": "Point", "coordinates": [ 106.61963, 29.71574 ] } },
{ "type": "Feature", "properties": { "name": "重庆市渝北区实验中学(渝航校区)", "lon": 106.62043, "lat": 29.72425, "area": "渝北区", "address": "重庆市渝北区汉渝路38号", "url": "https://poi-pic-gz.cdn.bcebos.com/pic_cbfbce04b5c83d39399472c0f773f584.jpeg" }, "geometry": { "type": "Point", "coordinates": [ 106.621104388296217, 29.723202448392687 ] } },
{ "type": "Feature", "properties": { "name": "重庆南开两江中学", "lon": 106.79839, "lat": 29.69112, "area": "渝北区", "address": "重庆市渝北区龙驿大道209号", "url": "" }, "geometry": { "type": "Point", "coordinates": [ 106.79839, 29.69112 ] } },
{ "type": "Feature", "properties": { "name": "重庆市华蓥中学校", "lon": 106.73662, "lat": 29.98406, "area": "渝北区", "address": "重庆市渝北区竹松路31号", "url": "" }, "geometry": { "type": "Point", "coordinates": [ 106.73662, 29.98406 ] } },
{ "type": "Feature", "properties": { "name": "重庆巴蜀常春藤学校", "lon": 106.66656, "lat": 29.79016, "area": "渝北区", "address": "重庆市渝北区空港东路766号", "url": "" }, "geometry": { "type": "Point", "coordinates": [ 106.66656, 29.79016 ] } },
{ "type": "Feature", "properties": { "name": "重庆南开两江中学", "lon": 106.79839, "lat": 29.69112, "area": "渝北区", "address": "重庆市渝北区龙驿大道209号", "url": "" }, "geometry": { "type": "Point", "coordinates": [ 106.79839, 29.69112 ] } },
{ "type": "Feature", "properties": { "name": "重庆两江育才中学(鸳鸯校区)", "lon": 106.55312, "lat": 29.66702, "area": "渝北区", "address": "重庆市渝北区鸳鸯北路23号", "url": "" }, "geometry": { "type": "Point", "coordinates": [ 106.55312, 29.66702 ] } },
{ "type": "Feature", "properties": { "name": "重庆市礼嘉中学校", "lon": 106.49392, "lat": 29.6758, "area": "渝北区", "address": "重庆市渝北区礼嘉街道礼智街22号", "url": "" }, "geometry": { "type": "Point", "coordinates": [ 106.49392, 29.6758 ] } },
{ "type": "Feature", "properties": { "name": "西大两江实验学校", "lon": 106.50381, "lat": 29.7015, "area": "北碚区", "address": "重庆市北碚区长平路666号", "url": "" }, "geometry": { "type": "Point", "coordinates": [ 106.50381, 29.7015 ] } },
{ "type": "Feature", "properties": { "name": "重庆一中(双语校区)", "lon": 106.53075, "lat": 29.66144, "area": "渝北区", "address": "重庆市渝北区湖霞街2号", "url": "" }, "geometry": { "type": "Point", "coordinates": [ 106.53075, 29.66144 ] } },
{ "type": "Feature", "properties": { "name": "重庆市八中两江金溪中学校", "lon": 106.57605, "lat": 29.66565, "area": "渝北区", "address": "重庆市渝北区湖影街1号", "url": "" }, "geometry": { "type": "Point", "coordinates": [ 106.57605, 29.66565 ] } },
{ "type": "Feature", "properties": { "name": "重庆两江新区西大附中星辰学校", "lon": 106.5183, "lat": 29.63841, "area": "渝北区", "address": "重庆市渝北区怡景路96号", "url": "" }, "geometry": { "type": "Point", "coordinates": [ 106.5183, 29.63841 ] } },
{ "type": "Feature", "properties": { "name": "两江新区巴蜀中学(嘉和校区)", "lon": 106.46204, "lat": 29.68595, "area": "渝北区", "address": "重庆市渝北区两江新区礼嘉镇嘉和街道", "url": "" }, "geometry": { "type": "Point", "coordinates": [ 106.46204, 29.68595 ] } },
{ "type": "Feature", "properties": { "name": "重庆竹林实验学校", "lon": 106.47287, "lat": 29.62437, "area": "渝北区", "address": "重庆市渝北区楠竹路6号", "url": "" }, "geometry": { "type": "Point", "coordinates": [ 106.47287, 29.62437 ] } },
{ "type": "Feature", "properties": { "name": "重庆市第十八中学(观音桥校区)", "lon": 106.53802, "lat": 29.57765, "area": "江北区", "address": "重庆市江北区建新东路120号", "url": "" }, "geometry": { "type": "Point", "coordinates": [ 106.53802, 29.57765 ] } },
{ "type": "Feature", "properties": { "name": "重庆市第二外国语学校", "lon": 106.60618, "lat": 29.54476, "area": "南岸区", "address": "重庆市南岸区崇文路26号", "url": "" }, "geometry": { "type": "Point", "coordinates": [ 106.60618, 29.54476 ] } },
{ "type": "Feature", "properties": { "name": "重庆市字水中学(玉带山校区)", "lon": 106.47441, "lat": 29.5813, "area": "江北区", "address": "重庆市江北区盘溪一支路370号", "url": "" }, "geometry": { "type": "Point", "coordinates": [ 106.47441, 29.5813 ] } },
{ "type": "Feature", "properties": { "name": "重庆鲁能巴蜀中学", "lon": 106.5615, "lat": 29.60233, "area": "江北区", "address": "重庆市江北区新溉大道889号", "url": "" }, "geometry": { "type": "Point", "coordinates": [ 106.5615, 29.60233 ] } },
{ "type": "Feature", "properties": { "name": "重庆市望江中学校(过渡校区)", "lon": 106.71398, "lat": 29.5972, "area": "江北区", "address": "重庆市江北区福宏大道与郭兴路交叉路口往北约250米", "url": "" }, "geometry": { "type": "Point", "coordinates": [ 106.71398, 29.5972 ] } },
{ "type": "Feature", "properties": { "name": "重庆蜀都中学", "lon": 106.51721, "lat": 29.57421, "area": "江北区", "address": "重庆市江北区观音桥街道小苑一村21号", "url": "" }, "geometry": { "type": "Point", "coordinates": [ 106.51721, 29.57421 ] } },
{ "type": "Feature", "properties": { "name": "巴川量子中学", "lon": 106.5626, "lat": 29.59445, "area": "江北区", "address": "重庆市江北区新溉大道巴川量子中学", "url": "" }, "geometry": { "type": "Point", "coordinates": [ 106.5626, 29.59445 ] } },
{ "type": "Feature", "properties": { "name": "重庆市第十一中学校", "lon": 106.59629, "lat": 29.58547, "area": "南岸区", "address": "重庆市南岸区弹子石一村159号", "url": "" }, "geometry": { "type": "Point", "coordinates": [ 106.59629, 29.58547 ] } },
{ "type": "Feature", "properties": { "name": "重庆市南坪中学校", "lon": 106.56343, "lat": 29.51757, "area": "南岸区", "address": "重庆市南岸区白鹤路138号", "url": "" }, "geometry": { "type": "Point", "coordinates": [ 106.56343, 29.51757 ] } },
{ "type": "Feature", "properties": { "name": "重庆市广益中学", "lon": 106.5967, "lat": 29.53629, "area": "南岸区", "address": "重庆市南岸区黄桷垭文峰段78号", "url": "" }, "geometry": { "type": "Point", "coordinates": [ 106.5967, 29.53629 ] } },
{ "type": "Feature", "properties": { "name": "重庆市辅仁中学校", "lon": 106.57577, "lat": 29.53283, "area": "南岸区", "address": "重庆市南岸区海棠溪烟雨路344号", "url": "" }, "geometry": { "type": "Point", "coordinates": [ 106.57577, 29.53283 ] } },
{ "type": "Feature", "properties": { "name": "长生桥中学", "lon": 106.65775, "lat": 29.51551, "area": "南岸区", "address": "重庆市南岸区黄明路上锦星城北(长生桥地铁站东)", "url": "" }, "geometry": { "type": "Point", "coordinates": [ 106.65775, 29.51551 ] } },
{ "type": "Feature", "properties": { "name": "南开(融侨)中学", "lon": 106.53899, "lat": 29.52885, "area": "南岸区", "address": "重庆市南岸区风临路10号", "url": "" }, "geometry": { "type": "Point", "coordinates": [ 106.53899, 29.52885 ] } },
{ "type": "Feature", "properties": { "name": "重庆市鱼洞中学校", "lon": 106.50164, "lat": 29.385, "area": "巴南区", "address": "重庆市渝北区中央公园北路8号", "url": "" }, "geometry": { "type": "Point", "coordinates": [ 106.50164, 29.385 ] } },
{ "type": "Feature", "properties": { "name": "重庆市实验中学校", "lon": 106.50981, "lat": 29.39187, "area": "巴南区", "address": "重庆市巴南区黄溪口18号", "url": "" }, "geometry": { "type": "Point", "coordinates": [ 106.50981, 29.39187 ] } },
{ "type": "Feature", "properties": { "name": "重庆清华中学", "lon": 106.53284, "lat": 29.45694, "area": "巴南区", "address": "重庆市巴南区花溪街道花溪村3号", "url": "" }, "geometry": { "type": "Point", "coordinates": [ 106.53284, 29.45694 ] } },
{ "type": "Feature", "properties": { "name": "重庆市巴南中学校", "lon": 106.54607, "lat": 29.46258, "area": "巴南区", "address": "重庆市巴南区龙洲大道2346号", "url": "" }, "geometry": { "type": "Point", "coordinates": [ 106.54607, 29.46258 ] } },
{ "type": "Feature", "properties": { "name": "重庆市木洞中学", "lon": 106.84326, "lat": 29.57323, "area": "巴南区", "address": "重庆市巴南区前进路29号", "url": "" }, "geometry": { "type": "Point", "coordinates": [ 106.84326, 29.57323 ] } },
{ "type": "Feature", "properties": { "name": "西南大学附属中学(东区)", "lon": 106.53989, "lat": 29.83213, "area": null, "address": "重庆市北碚区云汉大道326号", "url": "" }, "geometry": { "type": "Point", "coordinates": [ 106.53989, 29.83213 ] } },
{ "type": "Feature", "properties": { "name": "重庆市江北中学思源校区", "lon": 106.54347, "lat": 29.8003, "area": null, "address": "重庆市北碚区竹溪东路与和源三支路交叉口东北200米", "url": "" }, "geometry": { "type": "Point", "coordinates": [ 106.54347, 29.8003 ] } },
{ "type": "Feature", "properties": { "name": "西南大学附属中学(悦来校区)", "lon": 106.53613, "lat": 29.70197, "area": "渝北区", "address": "重庆市渝北区悦城路333号", "url": "https://lbsugc.cdn.bcebos.com/images/B665af16753ef915596.jpeg" }, "geometry": { "type": "Point", "coordinates": [ 106.53613, 29.70197 ] } }
]
}
