{
"type": "FeatureCollection",
"name": "school",
"crs": { "type": "name", "properties": { "name": "urn:ogc:def:crs:OGC:1.3:CRS84" } },
"features": [
{ "type": "Feature", "properties": { "name": "重庆市万州二中实验中学", "lon": 108.32881, "lat": 30.70346, "area": "万州区", "address": "重庆市万州区经开区高峰中学旁", "rank": 1 }, "geometry": { "type": "Point", "coordinates": [ 108.32881, 30.70346 ] } },
{ "type": "Feature", "properties": { "name": "重庆市万州第二高级中学(高中部)", "lon": 108.3673, "lat": 30.81421, "area": "万州区", "address": "重庆市万州区白岩路135号", "rank": 1 }, "geometry": { "type": "Point", "coordinates": [ 108.3673, 30.81421 ] } },
{ "type": "Feature", "properties": { "name": "重庆市万州第一中学", "lon": 108.39902, "lat": 30.82946, "area": "万州区", "address": "重庆市万州区钟鼓楼街道北滨大道三段308号", "rank": 1 }, "geometry": { "type": "Point", "coordinates": [ 108.39902, 30.82946 ] } },
{ "type": "Feature", "properties": { "name": "万州外国语学校", "lon": 108.3614, "lat": 30.8594, "area": "万州区", "address": "重庆市万州区滨湖路468号", "rank": 1 }, "geometry": { "type": "Point", "coordinates": [ 108.3614, 30.8594 ] } },
{ "type": "Feature", "properties": { "name": "万州清泉中学", "lon": 108.4019, "lat": 30.76871, "area": "万州区", "address": "重庆市万州区天津路100号", "rank": 1 }, "geometry": { "type": "Point", "coordinates": [ 108.4019, 30.76871 ] } },
{ "type": "Feature", "properties": { "name": "重庆市万州第三中学(江南校区)", "lon": 108.40415, "lat": 30.80287, "area": "万州区", "address": "重庆市万州区腾飞路123号", "rank": 1 }, "geometry": { "type": "Point", "coordinates": [ 108.40415, 30.80287 ] } },
{ "type": "Feature", "properties": { "name": "重庆市万州第三中学(太白校区)", "lon": 108.37363, "lat": 30.81009, "area": "万州区", "address": "重庆市万州区太白路67号（万达广场旁）", "rank": 1 }, "geometry": { "type": "Point", "coordinates": [ 108.37363, 30.81009 ] } },
{ "type": "Feature", "properties": { "name": "重庆市万州南京中学", "lon": 108.37624, "lat": 30.75591, "area": "万州区", "address": "重庆市万州区龙宝大街184号", "rank": 1 }, "geometry": { "type": "Point", "coordinates": [ 108.37624, 30.75591 ] } },
{ "type": "Feature", "properties": { "name": "重庆市万州新田中学", "lon": 108.40622, "lat": 30.69947, "area": "万州区", "address": "重庆市万州区新田镇五新街448号", "rank": 1 }, "geometry": { "type": "Point", "coordinates": [ 108.40622, 30.69947 ] } },
{ "type": "Feature", "properties": { "name": "重庆市万州上海中学", "lon": 108.44534, "lat": 30.76619, "area": "万州区", "address": "重庆市万州区上海大道298号", "rank": 1 }, "geometry": { "type": "Point", "coordinates": [ 108.44534, 30.76619 ] } },
{ "type": "Feature", "properties": { "name": "重庆市万州国本中学校(国本校区)", "lon": 108.36337, "lat": 30.81953, "area": "万州区", "address": "重庆市万州区国本支路35号", "rank": 1 }, "geometry": { "type": "Point", "coordinates": [ 108.36337, 30.81953 ] } },
{ "type": "Feature", "properties": { "name": "分水中学", "lon": 108.08266, "lat": 30.72255, "area": "万州区", "address": "重庆市万州区育才路67号", "rank": 1 }, "geometry": { "type": "Point", "coordinates": [ 108.08266, 30.72255 ] } },
{ "type": "Feature", "properties": { "name": "重庆市万州龙驹中学", "lon": 108.63529, "lat": 30.61393, "area": "万州区", "address": "重庆市万州区龙驹镇新街53号", "rank": 1 }, "geometry": { "type": "Point", "coordinates": [ 108.63529, 30.61393 ] } },
{ "type": "Feature", "properties": { "name": "重庆万州熊家中学", "lon": 108.42968, "lat": 30.90454, "area": "万州区", "address": "重庆市万州区古城大道134号（古城大道附近）", "rank": 1 }, "geometry": { "type": "Point", "coordinates": [ 108.42968, 30.90454 ] } },
{ "type": "Feature", "properties": { "name": "重庆市万州沙河中学", "lon": 108.36397, "lat": 30.83876, "area": "万州区", "address": "重庆市万州区石城路99号", "rank": 1 }, "geometry": { "type": "Point", "coordinates": [ 108.36397, 30.83876 ] } },
{ "type": "Feature", "properties": { "name": "重庆市万州高级中学", "lon": 108.43499, "lat": 30.75963, "area": "万州区", "address": "重庆市万州区五桥百安大道166号", "rank": 1 }, "geometry": { "type": "Point", "coordinates": [ 108.43499, 30.75963 ] } },
{ "type": "Feature", "properties": { "name": "重庆市涪陵第一中学校", "lon": 107.39905, "lat": 29.70959, "area": "涪陵区", "address": "重庆市涪陵区滨江大道一段58号", "rank": 1 }, "geometry": { "type": "Point", "coordinates": [ 107.39905, 29.70959 ] } },
{ "type": "Feature", "properties": { "name": "重庆市涪陵第二中学", "lon": 107.18706, "lat": 29.66357, "area": "涪陵区", "address": "重庆市涪陵区报本祠街2号", "rank": 1 }, "geometry": { "type": "Point", "coordinates": [ 107.18706, 29.66357 ] } },
{ "type": "Feature", "properties": { "name": "重庆市涪陵第五中学校", "lon": 107.35477, "lat": 29.72848, "area": "涪陵区", "address": "重庆市涪陵区迎宾大道555号", "rank": 1 }, "geometry": { "type": "Point", "coordinates": [ 107.35477, 29.72848 ] } },
{ "type": "Feature", "properties": { "name": "重庆市涪陵第十七中学校", "lon": 107.10745, "lat": 29.44616, "area": "涪陵区", "address": "重庆市涪陵区龙潭镇学苑路65号", "rank": 1 }, "geometry": { "type": "Point", "coordinates": [ 107.10745, 29.44616 ] } },
{ "type": "Feature", "properties": { "name": "重庆市涪陵实验中学校", "lon": 107.37882, "lat": 29.70517, "area": "涪陵区", "address": "重庆市涪陵区兴华西路2号", "rank": 1 }, "geometry": { "type": "Point", "coordinates": [ 107.37882, 29.70517 ] } },
{ "type": "Feature", "properties": { "name": "重庆市涪陵高级中学", "lon": 107.28976, "lat": 29.73429, "area": "涪陵区", "address": "重庆市涪陵区李渡镇太乙大道99号", "rank": 1 }, "geometry": { "type": "Point", "coordinates": [ 107.28976, 29.73429 ] } },
{ "type": "Feature", "properties": { "name": "重庆市涪陵二十中学校", "lon": 107.3967, "lat": 29.69623, "area": "涪陵区", "address": "重庆市涪陵区望州路22号", "rank": 1 }, "geometry": { "type": "Point", "coordinates": [ 107.3967, 29.69623 ] } },
{ "type": "Feature", "properties": { "name": "重庆市涪陵第十八中学校", "lon": 107.37652, "lat": 29.71078, "area": "涪陵区", "address": "重庆市涪陵区黎明路124号", "rank": 1 }, "geometry": { "type": "Point", "coordinates": [ 107.37652, 29.71078 ] } },
{ "type": "Feature", "properties": { "name": "重庆市求精中学", "lon": 106.54195, "lat": 29.56626, "area": "渝中区", "address": "重庆市渝中区中山四路69号", "rank": 1 }, "geometry": { "type": "Point", "coordinates": [ 106.54195, 29.56626 ] } },
{ "type": "Feature", "properties": { "name": "复旦中学", "lon": 106.57307, "lat": 29.554, "area": "渝中区", "address": "重庆市渝中区凯旋路22号", "rank": 1 }, "geometry": { "type": "Point", "coordinates": [ 106.57307, 29.554 ] } },
{ "type": "Feature", "properties": { "name": "重庆二十九中学(解放碑校区)", "lon": 106.56921, "lat": 29.56112, "area": "渝中区", "address": "重庆市渝中区邹容路143号", "rank": 1 }, "geometry": { "type": "Point", "coordinates": [ 106.56921, 29.56112 ] } },
{ "type": "Feature", "properties": { "name": "重庆第三十中学校", "lon": 106.54124, "lat": 29.55362, "area": "渝中区", "address": "重庆市渝中区长江一路13号", "rank": 1 }, "geometry": { "type": "Point", "coordinates": [ 106.54124, 29.55362 ] } },
{ "type": "Feature", "properties": { "name": "重庆市第六十六中学校", "lon": 106.51483, "lat": 29.53923, "area": "渝中区", "address": "重庆市渝中区长江二路二巷30号", "rank": 1 }, "geometry": { "type": "Point", "coordinates": [ 106.51483, 29.53923 ] } },
{ "type": "Feature", "properties": { "name": "巴蜀中学(张家花园校区)", "lon": 106.55388, "lat": 29.56066, "area": "渝中区", "address": "重庆市渝中区大溪沟人和街华福巷52号", "rank": 1 }, "geometry": { "type": "Point", "coordinates": [ 106.55388, 29.56066 ] } },
{ "type": "Feature", "properties": { "name": "茄子溪中学", "lon": 106.5026, "lat": 29.4218, "area": "大渡口区", "address": "重庆市大渡口区陈家坝街四胜小学南侧(前进化工北侧)", "rank": 1 }, "geometry": { "type": "Point", "coordinates": [ 106.5026, 29.4218 ] } },
{ "type": "Feature", "properties": { "name": "重庆三十七中", "lon": 106.4809, "lat": 29.47549, "area": "大渡口区", "address": "重庆市大渡口区钢花路910号", "rank": 1 }, "geometry": { "type": "Point", "coordinates": [ 106.4809, 29.47549 ] } },
{ "type": "Feature", "properties": { "name": "重庆十八中两江实验中学", "lon": 106.76205, "lat": 29.62484, "area": "江北区", "address": "重庆市江北区和煦路31号", "rank": 1 }, "geometry": { "type": "Point", "coordinates": [ 106.76205, 29.62484 ] } },
{ "type": "Feature", "properties": { "name": "重庆市第十八中学(铁山坪校区)", "lon": 106.67197, "lat": 29.62103, "area": "江北区", "address": "重庆市江北区铁山坪街道铁山大道与海尔路交叉口东北角", "rank": 1 }, "geometry": { "type": "Point", "coordinates": [ 106.67197, 29.62103 ] } },
{ "type": "Feature", "properties": { "name": "重庆鲁能巴蜀中学", "lon": 106.5615, "lat": 29.60233, "area": "江北区", "address": "重庆市江北区新溉大道889号", "rank": 1 }, "geometry": { "type": "Point", "coordinates": [ 106.5615, 29.60233 ] } },
{ "type": "Feature", "properties": { "name": "重庆市字水中学(西区)", "lon": 106.47441, "lat": 29.5813, "area": "江北区", "address": "重庆市江北区盘溪一支路370号", "rank": 1 }, "geometry": { "type": "Point", "coordinates": [ 106.47441, 29.5813 ] } },
{ "type": "Feature", "properties": { "name": "重庆市二0三中学校", "lon": 106.48689, "lat": 29.56504, "area": "江北区", "address": "重庆市江北区大石坝四村285号", "rank": 1 }, "geometry": { "type": "Point", "coordinates": [ 106.48689, 29.56504 ] } },
{ "type": "Feature", "properties": { "name": "重庆市望江中学校(过渡校区)", "lon": 106.71398, "lat": 29.5972, "area": "江北区", "address": "重庆市江北区福宏大道与郭兴路交叉路口往北约250米", "rank": 1 }, "geometry": { "type": "Point", "coordinates": [ 106.71398, 29.5972 ] } },
{ "type": "Feature", "properties": { "name": "重庆市第十八中学(观音桥校区)", "lon": 106.53802, "lat": 29.57765, "area": "江北区", "address": "重庆市江北区建新东路120号", "rank": 1 }, "geometry": { "type": "Point", "coordinates": [ 106.53802, 29.57765 ] } },
{ "type": "Feature", "properties": { "name": "重庆蜀都中学", "lon": 106.51721, "lat": 29.57421, "area": "江北区", "address": "重庆市江北区观音桥街道小苑一村21号", "rank": 1 }, "geometry": { "type": "Point", "coordinates": [ 106.51721, 29.57421 ] } },
{ "type": "Feature", "properties": { "name": "重庆市三十二中(高中部)", "lon": 106.43744, "lat": 29.6104, "area": "沙坪坝区", "address": "重庆市沙坪坝区212国道工农坡22号", "rank": 1 }, "geometry": { "type": "Point", "coordinates": [ 106.43744, 29.6104 ] } },
{ "type": "Feature", "properties": { "name": "重庆西藏中学", "lon": 106.41829, "lat": 29.57343, "area": "沙坪坝区", "address": "重庆市沙坪坝区保育路静石湾25号", "rank": 1 }, "geometry": { "type": "Point", "coordinates": [ 106.41829, 29.57343 ] } },
{ "type": "Feature", "properties": { "name": "重庆市第七中学校", "lon": 106.45988, "lat": 29.57387, "area": "沙坪坝区", "address": "重庆市沙坪坝区沙坪坝北街94号", "rank": 1 }, "geometry": { "type": "Point", "coordinates": [ 106.45988, 29.57387 ] } },
{ "type": "Feature", "properties": { "name": "重庆市青木关中学校", "lon": 106.29639, "lat": 29.67562, "area": "沙坪坝区", "address": "重庆市沙坪坝区青木关镇新青路315号", "rank": 1 }, "geometry": { "type": "Point", "coordinates": [ 106.29639, 29.67562 ] } },
{ "type": "Feature", "properties": { "name": "重庆市第一中学校", "lon": 106.46194, "lat": 29.56239, "area": "沙坪坝区", "address": "重庆市沙坪坝区沙坪坝南街2号", "rank": 1 }, "geometry": { "type": "Point", "coordinates": [ 106.46194, 29.56239 ] } },
{ "type": "Feature", "properties": { "name": "重庆大学附属中学校", "lon": 106.45884, "lat": 29.57297, "area": "沙坪坝区", "address": "重庆市沙坪坝区沙坪坝北街94号", "rank": 1 }, "geometry": { "type": "Point", "coordinates": [ 106.45884, 29.57297 ] } },
{ "type": "Feature", "properties": { "name": "重庆市天星桥中学", "lon": 106.44798, "lat": 29.54644, "area": "沙坪坝区", "address": "重庆市沙坪坝区天星桥正街82号", "rank": 1 }, "geometry": { "type": "Point", "coordinates": [ 106.44798, 29.54644 ] } },
{ "type": "Feature", "properties": { "name": "重庆市凤鸣山中学", "lon": 106.44474, "lat": 29.53126, "area": "沙坪坝区", "address": "重庆市沙坪坝区凤天大道150号", "rank": 1 }, "geometry": { "type": "Point", "coordinates": [ 106.44474, 29.53126 ] } },
{ "type": "Feature", "properties": { "name": "南开中学", "lon": 106.45603, "lat": 29.56445, "area": "沙坪坝区", "address": "重庆市沙坪坝区沙坪坝南街1号", "rank": 1 }, "geometry": { "type": "Point", "coordinates": [ 106.45603, 29.56445 ] } },
{ "type": "Feature", "properties": { "name": "重庆市沙坪坝实验中学", "lon": 106.4672, "lat": 29.55849, "area": "沙坪坝区", "address": "重庆市沙坪坝区土湾大公村22号", "rank": 1 }, "geometry": { "type": "Point", "coordinates": [ 106.4672, 29.55849 ] } },
{ "type": "Feature", "properties": { "name": "重庆市树人中学校", "lon": 106.4442, "lat": 29.56729, "area": "沙坪坝区", "address": "重庆市沙坪坝区小杨公桥118号", "rank": 1 }, "geometry": { "type": "Point", "coordinates": [ 106.4442, 29.56729 ] } },
{ "type": "Feature", "properties": { "name": "重庆市渝西中学", "lon": 106.31039, "lat": 29.30173, "area": "九龙坡区", "address": "重庆市九龙坡区永安路6号", "rank": 1 }, "geometry": { "type": "Point", "coordinates": [ 106.31039, 29.30173 ] } },
{ "type": "Feature", "properties": { "name": "重庆市一一一中学校", "lon": 106.47554, "lat": 29.52907, "area": "九龙坡区", "address": "重庆市九龙坡区石新路27号(石新路地铁站1B口旁)", "rank": 1 }, "geometry": { "type": "Point", "coordinates": [ 106.47554, 29.52907 ] } },
{ "type": "Feature", "properties": { "name": "重庆市九龙坡区实验外国语学校", "lon": 106.4355, "lat": 29.46106, "area": "九龙坡区", "address": "重庆市九龙坡区田福路69号", "rank": 1 }, "geometry": { "type": "Point", "coordinates": [ 106.4355, 29.46106 ] } },
{ "type": "Feature", "properties": { "name": "重庆市铁路中学校", "lon": 106.52888, "lat": 29.49137, "area": "九龙坡区", "address": "重庆市九龙坡区邮电路重庆电力高等专科学校北侧约70米", "rank": 1 }, "geometry": { "type": "Point", "coordinates": [ 106.52888, 29.49137 ] } },
{ "type": "Feature", "properties": { "name": "重庆市渝高中学校", "lon": 106.48324, "lat": 29.53142, "area": "九龙坡区", "address": "重庆市九龙坡区科园三街27号渝高公园旁", "rank": 1 }, "geometry": { "type": "Point", "coordinates": [ 106.48324, 29.53142 ] } },
{ "type": "Feature", "properties": { "name": "重庆市杨家坪中学", "lon": 106.50752, "lat": 29.50914, "area": "九龙坡区", "address": "重庆市九龙坡区杨家坪西郊支路1号", "rank": 1 }, "geometry": { "type": "Point", "coordinates": [ 106.50752, 29.50914 ] } },
{ "type": "Feature", "properties": { "name": "重庆市田家炳中学(B区)", "lon": 106.42937, "lat": 29.46775, "area": "九龙坡区", "address": "重庆市九龙坡区田坝新村65号", "rank": 1 }, "geometry": { "type": "Point", "coordinates": [ 106.42937, 29.46775 ] } },
{ "type": "Feature", "properties": { "name": "重庆市田家炳中学(A区)", "lon": 106.51198, "lat": 29.53078, "area": "九龙坡区", "address": "重庆市九龙坡区谢家湾正街5号", "rank": 1 }, "geometry": { "type": "Point", "coordinates": [ 106.51198, 29.53078 ] } },
{ "type": "Feature", "properties": { "name": "重庆外国语学校", "lon": 106.47723, "lat": 29.53597, "area": "九龙坡区", "address": "重庆市九龙坡区红育坡1号", "rank": 1 }, "geometry": { "type": "Point", "coordinates": [ 106.47723, 29.53597 ] } },
{ "type": "Feature", "properties": { "name": "重庆育才中学(谢家湾校区)", "lon": 106.51081, "lat": 29.52213, "area": "九龙坡区", "address": "重庆市九龙坡区谢家湾正街92号", "rank": 1 }, "geometry": { "type": "Point", "coordinates": [ 106.51081, 29.52213 ] } },
{ "type": "Feature", "properties": { "name": "重庆市辅仁中学校", "lon": 106.57577, "lat": 29.53283, "area": "南岸区", "address": "重庆市南岸区海棠溪烟雨路344号", "rank": 1 }, "geometry": { "type": "Point", "coordinates": [ 106.57577, 29.53283 ] } },
{ "type": "Feature", "properties": { "name": "长生桥中学", "lon": 106.65775, "lat": 29.51551, "area": "南岸区", "address": "重庆市南岸区黄明路上锦星城北(长生桥地铁站东)", "rank": 1 }, "geometry": { "type": "Point", "coordinates": [ 106.65775, 29.51551 ] } },
{ "type": "Feature", "properties": { "name": "重庆市广益中学", "lon": 106.5967, "lat": 29.53629, "area": "南岸区", "address": "重庆市南岸区黄桷垭文峰段78号", "rank": 1 }, "geometry": { "type": "Point", "coordinates": [ 106.5967, 29.53629 ] } },
{ "type": "Feature", "properties": { "name": "重庆市南坪中学校", "lon": 106.56343, "lat": 29.51757, "area": "南岸区", "address": "重庆市南岸区白鹤路138号", "rank": 1 }, "geometry": { "type": "Point", "coordinates": [ 106.56343, 29.51757 ] } },
{ "type": "Feature", "properties": { "name": "重庆市第十一中学校", "lon": 106.59629, "lat": 29.58547, "area": "南岸区", "address": "重庆市南岸区弹子石一村159号", "rank": 1 }, "geometry": { "type": "Point", "coordinates": [ 106.59629, 29.58547 ] } },
{ "type": "Feature", "properties": { "name": "南开(融侨)中学", "lon": 106.53899, "lat": 29.52885, "area": "南岸区", "address": "重庆市南岸区风临路10号", "rank": 1 }, "geometry": { "type": "Point", "coordinates": [ 106.53899, 29.52885 ] } },
{ "type": "Feature", "properties": { "name": "重庆市王朴中学校", "lon": 106.56077, "lat": 29.88935, "area": "北碚区", "address": "重庆市北碚区桥亭街6号", "rank": 1 }, "geometry": { "type": "Point", "coordinates": [ 106.56077, 29.88935 ] } },
{ "type": "Feature", "properties": { "name": "重庆市兼善中学(蔡家校区)", "lon": 106.47786, "lat": 29.74437, "area": "北碚区", "address": "重庆市北碚区同源路", "rank": 1 }, "geometry": { "type": "Point", "coordinates": [ 106.47786, 29.74437 ] } },
{ "type": "Feature", "properties": { "name": "重庆第二十三中学校", "lon": 106.38488, "lat": 29.87495, "area": "北碚区", "address": "重庆市北碚区澄江镇澄江路3巷5号", "rank": 1 }, "geometry": { "type": "Point", "coordinates": [ 106.38488, 29.87495 ] } },
{ "type": "Feature", "properties": { "name": "重庆市兼善中学", "lon": 106.44145, "lat": 29.8188, "area": "北碚区", "address": "重庆市北碚区毛背沱137号", "rank": 1 }, "geometry": { "type": "Point", "coordinates": [ 106.44145, 29.8188 ] } },
{ "type": "Feature", "properties": { "name": "重庆市朝阳中学(北校区)", "lon": 106.44028, "lat": 29.82423, "area": "北碚区", "address": "重庆市北碚区嘉陵村1号", "rank": 1 }, "geometry": { "type": "Point", "coordinates": [ 106.44028, 29.82423 ] } },
{ "type": "Feature", "properties": { "name": "重庆四十八中学校", "lon": 106.37184, "lat": 29.77098, "area": "北碚区", "address": "重庆市北碚区双凤桥27号（六九〇五工厂医院斜对面）", "rank": 1 }, "geometry": { "type": "Point", "coordinates": [ 106.37184, 29.77098 ] } },
{ "type": "Feature", "properties": { "name": "西南大学附属中学(本部)", "lon": 106.42772, "lat": 29.83701, "area": "北碚区", "address": "重庆市北碚区杜家街43号", "rank": 1 }, "geometry": { "type": "Point", "coordinates": [ 106.42772, 29.83701 ] } },
{ "type": "Feature", "properties": { "name": "重庆江北中学", "lon": 106.49576, "lat": 29.78988, "area": "北碚区", "address": "重庆市北碚区新华路171号", "rank": 1 }, "geometry": { "type": "Point", "coordinates": [ 106.49576, 29.78988 ] } },
{ "type": "Feature", "properties": { "name": "重庆市北碚田家炳中学", "lon": 106.40117, "lat": 29.81303, "area": "北碚区", "address": "重庆市北碚区华光支路31号", "rank": 1 }, "geometry": { "type": "Point", "coordinates": [ 106.40117, 29.81303 ] } },
{ "type": "Feature", "properties": { "name": "重庆市綦江中学", "lon": 106.694277, "lat": 29.031866849420059, "area": "綦江区", "address": "重庆市綦江区新村路学府雅苑东侧48号", "rank": 1 }, "geometry": { "type": "Point", "coordinates": [ 106.69428, 29.03187 ] } },
{ "type": "Feature", "properties": { "name": "重庆市綦江南州中学校", "lon": 106.63801, "lat": 29.05438, "area": "綦江区", "address": "重庆市綦江区文龙街道天星大道53号", "rank": 1 }, "geometry": { "type": "Point", "coordinates": [ 106.63801, 29.05438 ] } },
{ "type": "Feature", "properties": { "name": "重庆市綦江区三江中学", "lon": 106.70966, "lat": 28.94109, "area": "綦江区", "address": "重庆市綦江区三江街道重冶社区红卫小区27号", "rank": 1 }, "geometry": { "type": "Point", "coordinates": [ 106.70966, 28.94109 ] } },
{ "type": "Feature", "properties": { "name": "重庆市綦江区东溪中学", "lon": 106.66235, "lat": 28.76866, "area": "綦江区", "address": "重庆市綦江区东溪镇新巿场118号", "rank": 1 }, "geometry": { "type": "Point", "coordinates": [ 106.66235, 28.76866 ] } },
{ "type": "Feature", "properties": { "name": "重庆市綦江区打通中学", "lon": 106.67452, "lat": 28.61323, "area": "綦江区", "address": "重庆市綦江区打通北路23号", "rank": 1 }, "geometry": { "type": "Point", "coordinates": [ 106.67452, 28.61323 ] } },
{ "type": "Feature", "properties": { "name": "綦江实验中学", "lon": 106.64427, "lat": 29.02695, "area": "綦江区", "address": "重庆市綦江区陵园路50号", "rank": 1 }, "geometry": { "type": "Point", "coordinates": [ 106.64427, 29.02695 ] } },
{ "type": "Feature", "properties": { "name": "重庆市大足中学", "lon": 105.704987, "lat": 29.702785664815721, "area": "大足区", "address": "重庆市大足区学府路1号", "rank": 1 }, "geometry": { "type": "Point", "coordinates": [ 105.70499, 29.70279 ] } },
{ "type": "Feature", "properties": { "name": "重庆市大足第一中学校", "lon": 105.77648, "lat": 29.5673, "area": "大足区", "address": "重庆市大足区幸光路500号", "rank": 1 }, "geometry": { "type": "Point", "coordinates": [ 105.77648, 29.5673 ] } },
{ "type": "Feature", "properties": { "name": "重庆市大足田家炳中学校", "lon": 105.7295, "lat": 29.68265, "area": "大足区", "address": "重庆市大足区五星大道249号（田家炳中学校西门旁）", "rank": 1 }, "geometry": { "type": "Point", "coordinates": [ 105.7295, 29.68265 ] } },
{ "type": "Feature", "properties": { "name": "重庆市双桥中学", "lon": 105.77999, "lat": 29.48753, "area": "大足区", "address": "重庆市大足区双路镇双龙西路112号", "rank": 1 }, "geometry": { "type": "Point", "coordinates": [ 105.77999, 29.48753 ] } },
{ "type": "Feature", "properties": { "name": "重庆南开两江中学", "lon": 106.79839, "lat": 29.69112, "area": "渝北区", "address": "重庆市渝北区龙驿大道209号", "rank": 1 }, "geometry": { "type": "Point", "coordinates": [ 106.79839, 29.69112 ] } },
{ "type": "Feature", "properties": { "name": "重庆市渝北中学校", "lon": 106.628578, "lat": 29.757802524191813, "area": "渝北区", "address": "重庆市渝北区桃源大道888号", "rank": 1 }, "geometry": { "type": "Point", "coordinates": [ 106.62858, 29.7578 ] } },
{ "type": "Feature", "properties": { "name": "重庆市南华中学校", "lon": 106.59907, "lat": 29.695428748134319, "area": "渝北区", "address": "重庆市渝北区宝桐一路壳牌加油站(兴科大道站)西北侧", "rank": 1 }, "geometry": { "type": "Point", "coordinates": [ 106.59907, 29.69543 ] } },
{ "type": "Feature", "properties": { "name": "重庆市华蓥中学校", "lon": 106.73662, "lat": 29.98406, "area": "渝北区", "address": "重庆市渝北区竹松路31号", "rank": 1 }, "geometry": { "type": "Point", "coordinates": [ 106.73662, 29.98406 ] } },
{ "type": "Feature", "properties": { "name": "重庆市松树桥中学校龙溪校区(A校区)", "lon": 106.50777, "lat": 29.59046, "area": "渝北区", "address": "重庆市渝北区松桥路169号", "rank": 1 }, "geometry": { "type": "Point", "coordinates": [ 106.50777, 29.59046 ] } },
{ "type": "Feature", "properties": { "name": "重庆市育仁中学校", "lon": 106.79457, "lat": 29.72408, "area": "渝北区", "address": "重庆市渝北区龙兴镇福临路6号", "rank": 1 }, "geometry": { "type": "Point", "coordinates": [ 106.79457, 29.72408 ] } },
{ "type": "Feature", "properties": { "name": "重庆市暨华中学校", "lon": 106.61963, "lat": 29.71574, "area": "渝北区", "address": "重庆市渝北区双龙湖街道龙吉街98号", "rank": 1 }, "geometry": { "type": "Point", "coordinates": [ 106.61963, 29.71574 ] } },
{ "type": "Feature", "properties": { "name": "重庆一中寄宿学校", "lon": 106.61062, "lat": 29.69255, "area": "渝北区", "address": "重庆市渝北区双湖路266号", "rank": 1 }, "geometry": { "type": "Point", "coordinates": [ 106.61062, 29.69255 ] } },
{ "type": "Feature", "properties": { "name": "重庆南开两江中学", "lon": 106.587332, "lat": 29.661742285735301, "area": "渝北区", "address": "重庆市渝北区宝圣大道207号", "rank": 1 }, "geometry": { "type": "Point", "coordinates": [ 106.58733, 29.66174 ] } },
{ "type": "Feature", "properties": { "name": "皇冠实验中学(重庆一中皇冠校区)", "lon": 106.53396, "lat": 29.59415, "area": "渝北区", "address": "重庆市渝北区红黄路99号", "rank": 1 }, "geometry": { "type": "Point", "coordinates": [ 106.53396, 29.59415 ] } },
{ "type": "Feature", "properties": { "name": "重庆市第八中学校(渝北校区)", "lon": 106.595859, "lat": 29.731184790814162, "area": "渝北区", "address": "重庆市渝北区中央公园北路8号", "rank": 0 }, "geometry": { "type": "Point", "coordinates": [ 106.59586, 29.73118 ] } },
{ "type": "Feature", "properties": { "name": "重庆市实验中学校", "lon": 106.50961, "lat": 29.39191, "area": "巴南区", "address": "重庆市巴南区黄溪口18号", "rank": 1 }, "geometry": { "type": "Point", "coordinates": [ 106.50961, 29.39191 ] } },
{ "type": "Feature", "properties": { "name": "重庆市木洞中学", "lon": 106.84326, "lat": 29.57323, "area": "巴南区", "address": "重庆市巴南区前进路29号", "rank": 1 }, "geometry": { "type": "Point", "coordinates": [ 106.84326, 29.57323 ] } },
{ "type": "Feature", "properties": { "name": "大江中学", "lon": 106.500049, "lat": 29.393638495811668, "area": "巴南区", "address": "重庆市巴南区育才街11号", "rank": 1 }, "geometry": { "type": "Point", "coordinates": [ 106.50005, 29.39364 ] } },
{ "type": "Feature", "properties": { "name": "重庆市清华中学校", "lon": 106.534738, "lat": 29.457707056297092, "area": "巴南区", "address": "重庆市巴南区花溪街道花溪村3号", "rank": 1 }, "geometry": { "type": "Point", "coordinates": [ 106.53474, 29.45771 ] } },
{ "type": "Feature", "properties": { "name": "重庆市实验中学(接龙校区)", "lon": 106.787789, "lat": 29.250222949835539, "area": "巴南区", "address": "重庆市巴南区近郊接龙镇新正街46号", "rank": 1 }, "geometry": { "type": "Point", "coordinates": [ 106.78779, 29.25022 ] } },
{ "type": "Feature", "properties": { "name": "渝南田家炳中学", "lon": 106.602665, "lat": 29.388778187152635, "area": "巴南区", "address": "重庆市巴南区界石镇新华街57号", "rank": 1 }, "geometry": { "type": "Point", "coordinates": [ 106.60266, 29.38878 ] } },
{ "type": "Feature", "properties": { "name": "重庆市鱼洞中学校", "lon": 106.501635, "lat": 29.384986957848238, "area": "巴南区", "address": "重庆市巴南区石子坪400号", "rank": 1 }, "geometry": { "type": "Point", "coordinates": [ 106.50163, 29.38499 ] } },
{ "type": "Feature", "properties": { "name": "重庆市巴南中学校", "lon": 106.54607, "lat": 29.46258, "area": "巴南区", "address": "重庆市巴南区龙洲大道2346号", "rank": 1 }, "geometry": { "type": "Point", "coordinates": [ 106.54607, 29.46258 ] } },
{ "type": "Feature", "properties": { "name": "黔江民族中学校", "lon": 108.78561, "lat": 29.5245, "area": "黔江区", "address": "重庆市黔江区城东街道育才路208号", "rank": 1 }, "geometry": { "type": "Point", "coordinates": [ 108.78561, 29.5245 ] } },
{ "type": "Feature", "properties": { "name": "重庆市黔江中学校", "lon": 108.7786, "lat": 29.53376, "area": "黔江区", "address": "重庆市黔江区长征北路182号", "rank": 1 }, "geometry": { "type": "Point", "coordinates": [ 108.7786, 29.53376 ] } },
{ "type": "Feature", "properties": { "name": "重庆市黔江新华中学校", "lon": 108.77606, "lat": 29.53964, "area": "黔江区", "address": "重庆市黔江区花鼓园路7号", "rank": 1 }, "geometry": { "type": "Point", "coordinates": [ 108.77606, 29.53964 ] } },
{ "type": "Feature", "properties": { "name": "重庆市长寿实验中学校", "lon": 107.0693, "lat": 29.84712, "area": "长寿区", "address": "重庆市长寿区园丁路24号", "rank": 1 }, "geometry": { "type": "Point", "coordinates": [ 107.0693, 29.84712 ] } },
{ "type": "Feature", "properties": { "name": "重庆市长寿第一中学校", "lon": 107.05972, "lat": 29.8362, "area": "长寿区", "address": "重庆市长寿区凤中路11号", "rank": 1 }, "geometry": { "type": "Point", "coordinates": [ 107.05972, 29.8362 ] } },
{ "type": "Feature", "properties": { "name": "重庆市长寿第二中学校", "lon": 107.07379, "lat": 29.82436, "area": "长寿区", "address": "重庆市长寿区关口路1号东街64号", "rank": 1 }, "geometry": { "type": "Point", "coordinates": [ 107.07379, 29.82436 ] } },
{ "type": "Feature", "properties": { "name": "葛兰中学", "lon": 107.11278, "lat": 30.03102, "area": "长寿区", "address": "重庆市长寿区葛兰镇老街114号", "rank": 1 }, "geometry": { "type": "Point", "coordinates": [ 107.11278, 30.03102 ] } },
{ "type": "Feature", "properties": { "name": "龙溪中学", "lon": 107.21735, "lat": 29.88873, "area": "长寿区", "address": "重庆市长寿区邻封镇龙溪东路14号", "rank": 1 }, "geometry": { "type": "Point", "coordinates": [ 107.21735, 29.88873 ] } },
{ "type": "Feature", "properties": { "name": "双龙中学", "lon": 107.202, "lat": 29.95738, "area": "长寿区", "address": "重庆市长寿区双龙镇罗围正街58号", "rank": 1 }, "geometry": { "type": "Point", "coordinates": [ 107.202, 29.95738 ] } },
{ "type": "Feature", "properties": { "name": "重庆市长寿川维中学校(北城校区)", "lon": 107.06578, "lat": 29.86851, "area": "长寿区", "address": "重庆市长寿区桃兴三路8号", "rank": 1 }, "geometry": { "type": "Point", "coordinates": [ 107.06578, 29.86851 ] } },
{ "type": "Feature", "properties": { "name": "重庆市长寿中学校", "lon": 107.08679, "lat": 29.85328, "area": "长寿区", "address": "重庆市长寿区文苑大道4号", "rank": 1 }, "geometry": { "type": "Point", "coordinates": [ 107.08679, 29.85328 ] } },
{ "type": "Feature", "properties": { "name": "重庆市双福育才中学", "lon": 106.29458, "lat": 29.41179, "area": "江津区", "address": "重庆市江津区双福新区枫林大道行知路1号", "rank": 1 }, "geometry": { "type": "Point", "coordinates": [ 106.29458, 29.41179 ] } },
{ "type": "Feature", "properties": { "name": "重庆市江津双福中学校", "lon": 106.27126, "lat": 29.41205, "area": "江津区", "address": "重庆市江津区学府路61号（双河老街附近）", "rank": 1 }, "geometry": { "type": "Point", "coordinates": [ 106.27126, 29.41205 ] } },
{ "type": "Feature", "properties": { "name": "重庆市江津中学校", "lon": 106.25472, "lat": 29.2828, "area": "江津区", "address": "重庆市江津区鼎山大道299号", "rank": 1 }, "geometry": { "type": "Point", "coordinates": [ 106.25472, 29.2828 ] } },
{ "type": "Feature", "properties": { "name": "重庆市江津第二中学校", "lon": 106.23261, "lat": 29.27285, "area": "江津区", "address": "重庆市江津区德感街道德感正街288号", "rank": 1 }, "geometry": { "type": "Point", "coordinates": [ 106.23261, 29.27285 ] } },
{ "type": "Feature", "properties": { "name": "聚奎中学", "lon": 106.13675, "lat": 29.04278, "area": "江津区", "address": "重庆市江津区白沙镇X344(长安路)", "rank": 1 }, "geometry": { "type": "Point", "coordinates": [ 106.13675, 29.04278 ] } },
{ "type": "Feature", "properties": { "name": "重庆市江津第四中学校", "lon": 106.48387, "lat": 29.11369, "area": "江津区", "address": "重庆市江津区五岔文化街25号", "rank": 1 }, "geometry": { "type": "Point", "coordinates": [ 106.48387, 29.11369 ] } },
{ "type": "Feature", "properties": { "name": "重庆市江津第五中学校", "lon": 106.0254, "lat": 29.12393, "area": "江津区", "address": "重庆市江津区金龙街126号", "rank": 1 }, "geometry": { "type": "Point", "coordinates": [ 106.0254, 29.12393 ] } },
{ "type": "Feature", "properties": { "name": "重庆市江津第六中学校", "lon": 106.33613, "lat": 28.91481, "area": "江津区", "address": "重庆市江津区笋中街134号", "rank": 1 }, "geometry": { "type": "Point", "coordinates": [ 106.33613, 28.91481 ] } },
{ "type": "Feature", "properties": { "name": "重庆市江津第八中学校", "lon": 105.92411, "lat": 28.98553, "area": "江津区", "address": "重庆市江津区清源路106号", "rank": 1 }, "geometry": { "type": "Point", "coordinates": [ 105.92411, 28.98553 ] } },
{ "type": "Feature", "properties": { "name": "重庆市江津田家炳中学校", "lon": 106.2758, "lat": 29.269495047149999, "area": "江津区", "address": "重庆市江津区江州大道重庆市江津几江中学校", "rank": 1 }, "geometry": { "type": "Point", "coordinates": [ 106.2758, 29.2695 ] } },
{ "type": "Feature", "properties": { "name": "江津实验中学(东校区)", "lon": 106.25713, "lat": 29.2901, "area": "江津区", "address": "重庆市江津区东门路132号", "rank": 1 }, "geometry": { "type": "Point", "coordinates": [ 106.25713, 29.2901 ] } },
{ "type": "Feature", "properties": { "name": "北新巴蜀中学", "lon": 106.37299, "lat": 29.99573, "area": "合川区", "address": "重庆市合川区北新大道西北侧115乡道与北新大道交叉口西北120米", "rank": 1 }, "geometry": { "type": "Point", "coordinates": [ 106.37299, 29.99573 ] } },
{ "type": "Feature", "properties": { "name": "西南大学银翔实验中学", "lon": 106.45161, "lat": 29.87288, "area": "合川区", "address": "重庆市合川区土场镇三口村天星堡路59号", "rank": 1 }, "geometry": { "type": "Point", "coordinates": [ 106.45161, 29.87288 ] } },
{ "type": "Feature", "properties": { "name": "重庆市合川云门中学", "lon": 106.31763, "lat": 30.08566, "area": "合川区", "address": "重庆市合川区水巷子", "rank": 1 }, "geometry": { "type": "Point", "coordinates": [ 106.31763, 30.08566 ] } },
{ "type": "Feature", "properties": { "name": "重庆市合川育才中学", "lon": 106.327194, "lat": 29.971203869394927, "area": "合川区", "address": "重庆市合川区合州大道16号", "rank": 1 }, "geometry": { "type": "Point", "coordinates": [ 106.32719, 29.9712 ] } },
{ "type": "Feature", "properties": { "name": "重庆市合川太和中学", "lon": 106.04867, "lat": 30.0957, "area": "合川区", "address": "重庆市合川区太和镇小甄子街23号", "rank": 1 }, "geometry": { "type": "Point", "coordinates": [ 106.04867, 30.0957 ] } },
{ "type": "Feature", "properties": { "name": "重庆合川中学", "lon": 106.24563, "lat": 29.99643, "area": "合川区", "address": "重庆市合川区学府路8号", "rank": 1 }, "geometry": { "type": "Point", "coordinates": [ 106.24563, 29.99643 ] } },
{ "type": "Feature", "properties": { "name": "重庆市合川龙市中学", "lon": 106.46503, "lat": 30.21955, "area": "合川区", "address": "重庆市合川区文化街233号", "rank": 1 }, "geometry": { "type": "Point", "coordinates": [ 106.46503, 30.21955 ] } },
{ "type": "Feature", "properties": { "name": "瑞山中学", "lon": 106.26359, "lat": 29.99757, "area": "合川区", "address": "重庆市合川区合阳办青竹湾42号", "rank": 1 }, "geometry": { "type": "Point", "coordinates": [ 106.26359, 29.99757 ] } },
{ "type": "Feature", "properties": { "name": "大石中学校", "lon": 106.22105, "lat": 30.09786, "area": "合川区", "address": "重庆市合川区大石街道长安路474号", "rank": 1 }, "geometry": { "type": "Point", "coordinates": [ 106.22105, 30.09786 ] } },
{ "type": "Feature", "properties": { "name": "小沔中学", "lon": 106.53566, "lat": 30.12382, "area": "合川区", "address": "重庆市合川区B八八村道小沔小学东南侧约50米", "rank": 1 }, "geometry": { "type": "Point", "coordinates": [ 106.53566, 30.12382 ] } },
{ "type": "Feature", "properties": { "name": "北山中学", "lon": 105.89787, "lat": 29.35705, "area": "永川区", "address": "重庆市永川区北山路10号", "rank": 1 }, "geometry": { "type": "Point", "coordinates": [ 105.89787, 29.35705 ] } },
{ "type": "Feature", "properties": { "name": "重庆市永川中学校", "lon": 105.90132, "lat": 29.3481, "area": "永川区", "address": "重庆市永川区迎宾大道259号", "rank": 1 }, "geometry": { "type": "Point", "coordinates": [ 105.90132, 29.3481 ] } },
{ "type": "Feature", "properties": { "name": "重庆市永川景圣中学校", "lon": 105.83143, "lat": 29.16353, "area": "永川区", "address": "重庆市永川区五间镇景圣村正东方向90米", "rank": 1 }, "geometry": { "type": "Point", "coordinates": [ 105.83143, 29.16353 ] } },
{ "type": "Feature", "properties": { "name": "永川四中", "lon": 105.84759, "lat": 29.40159, "area": "永川区", "address": "重庆市永川区双石镇东大街138号", "rank": 1 }, "geometry": { "type": "Point", "coordinates": [ 105.84759, 29.40159 ] } },
{ "type": "Feature", "properties": { "name": "萱花中学", "lon": 105.89029, "lat": 29.36027, "area": "永川区", "address": "重庆市永川区萱花路238号", "rank": 1 }, "geometry": { "type": "Point", "coordinates": [ 105.89029, 29.36027 ] } },
{ "type": "Feature", "properties": { "name": "重庆文理学院附属中学校", "lon": 105.91896, "lat": 29.36512, "area": "永川区", "address": "重庆市永川区昌州大道东段361号", "rank": 1 }, "geometry": { "type": "Point", "coordinates": [ 105.91896, 29.36512 ] } },
{ "type": "Feature", "properties": { "name": "昌南中学", "lon": 105.88381, "lat": 29.3419, "area": "永川区", "address": "重庆市永川区南大街圣水路89号", "rank": 1 }, "geometry": { "type": "Point", "coordinates": [ 105.88381, 29.3419 ] } },
{ "type": "Feature", "properties": { "name": "南川道南中学(校西校区)", "lon": 107.06821, "lat": 29.16344, "area": "南川区", "address": "重庆市南川区金山大道", "rank": 1 }, "geometry": { "type": "Point", "coordinates": [ 107.06821, 29.16344 ] } },
{ "type": "Feature", "properties": { "name": "南川三中", "lon": 106.97175, "lat": 29.2551, "area": "南川区", "address": "重庆市南川区上南街附近", "rank": 1 }, "geometry": { "type": "Point", "coordinates": [ 106.97175, 29.2551 ] } },
{ "type": "Feature", "properties": { "name": "重庆市南川中学校", "lon": 107.09815, "lat": 29.16367, "area": "南川区", "address": "重庆市南川中学校位于重庆市南川区高寺路54号", "rank": 1 }, "geometry": { "type": "Point", "coordinates": [ 107.09815, 29.16367 ] } },
{ "type": "Feature", "properties": { "name": "重庆市南川区水江中学校", "lon": 107.27557, "lat": 29.24005, "area": "南川区", "address": "重庆市南川区南陵路2号", "rank": 1 }, "geometry": { "type": "Point", "coordinates": [ 107.27557, 29.24005 ] } },
{ "type": "Feature", "properties": { "name": "重庆市南川区第一中学校", "lon": 106.98384, "lat": 29.08072, "area": "南川区", "address": "重庆市南川区南平镇文化路9号", "rank": 1 }, "geometry": { "type": "Point", "coordinates": [ 106.98384, 29.08072 ] } },
{ "type": "Feature", "properties": { "name": "重庆市璧山中学校(东林校区)", "lon": 106.21962, "lat": 29.59412, "area": "璧山区", "address": "重庆市璧山区东林大道37号", "rank": 1 }, "geometry": { "type": "Point", "coordinates": [ 106.21962, 29.59412 ] } },
{ "type": "Feature", "properties": { "name": "来凤中学", "lon": 106.21128, "lat": 29.43394, "area": "璧山区", "address": "重庆市璧山区解放西路141号", "rank": 1 }, "geometry": { "type": "Point", "coordinates": [ 106.21128, 29.43394 ] } },
{ "type": "Feature", "properties": { "name": "重庆市璧山大路中学校", "lon": 106.21909, "lat": 29.72878, "area": "璧山区", "address": "重庆市璧山区大路街道文兴街16号", "rank": 1 }, "geometry": { "type": "Point", "coordinates": [ 106.21909, 29.72878 ] } },
{ "type": "Feature", "properties": { "name": "重庆市铜梁实验中学校", "lon": 106.096245, "lat": 29.824945344732811, "area": "铜梁区", "address": "重庆市铜梁区龙腾大道附近", "rank": 1 }, "geometry": { "type": "Point", "coordinates": [ 106.09625, 29.82495 ] } },
{ "type": "Feature", "properties": { "name": "重庆市铜梁二中", "lon": 106.06383, "lat": 29.84609, "area": "铜梁区", "address": "重庆市铜梁区东城街道塔山东街169号", "rank": 1 }, "geometry": { "type": "Point", "coordinates": [ 106.06383, 29.84609 ] } },
{ "type": "Feature", "properties": { "name": "铜梁中学校(凤山校区)", "lon": 106.04458, "lat": 29.85026, "area": "铜梁区", "address": "重庆市铜梁区巴川街道民主路103号", "rank": 1 }, "geometry": { "type": "Point", "coordinates": [ 106.04458, 29.85026 ] } },
{ "type": "Feature", "properties": { "name": "重庆市铜梁一中", "lon": 106.04682, "lat": 29.83722, "area": "铜梁区", "address": "重庆市铜梁区中兴路295号", "rank": 1 }, "geometry": { "type": "Point", "coordinates": [ 106.04682, 29.83722 ] } },
{ "type": "Feature", "properties": { "name": "重庆市潼南第一中学校", "lon": 105.83445, "lat": 30.16607, "area": "潼南区", "address": "重庆市潼南区东圣路32号", "rank": 1 }, "geometry": { "type": "Point", "coordinates": [ 105.83445, 30.16607 ] } },
{ "type": "Feature", "properties": { "name": "重庆市潼南实验中学校", "lon": 105.84948, "lat": 30.1916, "area": "潼南区", "address": "重庆市潼南区桂林街道办事处五湖路538号", "rank": 1 }, "geometry": { "type": "Point", "coordinates": [ 105.84948, 30.1916 ] } },
{ "type": "Feature", "properties": { "name": "重庆市潼南中学校", "lon": 105.81296, "lat": 30.18259, "area": "潼南区", "address": "重庆市潼南区书院街100号", "rank": 1 }, "geometry": { "type": "Point", "coordinates": [ 105.81296, 30.18259 ] } },
{ "type": "Feature", "properties": { "name": "西南大学附属中学荣昌实验学校", "lon": 105.617394, "lat": 29.431279452250553, "area": "荣昌区", "address": "重庆市荣昌区玉带路205号", "rank": 1 }, "geometry": { "type": "Point", "coordinates": [ 105.61739, 29.43128 ] } },
{ "type": "Feature", "properties": { "name": "重庆市荣昌仁义中学校", "lon": 105.47872, "lat": 29.50401, "area": "荣昌区", "address": "重庆市荣昌区育才路58号", "rank": 1 }, "geometry": { "type": "Point", "coordinates": [ 105.47872, 29.50401 ] } },
{ "type": "Feature", "properties": { "name": "重庆市荣昌中学校(宝城校区)", "lon": 105.59387, "lat": 29.41076, "area": "荣昌区", "address": "重庆市荣昌区玉屏街113号", "rank": 1 }, "geometry": { "type": "Point", "coordinates": [ 105.59387, 29.41076 ] } },
{ "type": "Feature", "properties": { "name": "重庆市荣昌安富中学校", "lon": 105.46803, "lat": 29.36133, "area": "荣昌区", "address": "重庆市荣昌区安富街道安陶路50号", "rank": 1 }, "geometry": { "type": "Point", "coordinates": [ 105.46803, 29.36133 ] } },
{ "type": "Feature", "properties": { "name": "重庆市荣昌永荣中学校", "lon": 105.594371, "lat": 29.411046626719532, "area": "荣昌区", "address": "重庆市荣昌区广场北路20号", "rank": 1 }, "geometry": { "type": "Point", "coordinates": [ 105.59437, 29.41105 ] } },
{ "type": "Feature", "properties": { "name": "重庆市开州中学浦里校区", "lon": 108.424101, "lat": 31.092389989184923, "area": "开州区", "address": "重庆市开州区赵家街道凤翔路66号", "rank": 1 }, "geometry": { "type": "Point", "coordinates": [ 108.4241, 31.09239 ] } },
{ "type": "Feature", "properties": { "name": "开州区温泉中学", "lon": 108.49249, "lat": 31.37804, "area": "开州区", "address": "重庆市开州区S202", "rank": 1 }, "geometry": { "type": "Point", "coordinates": [ 108.49249, 31.37804 ] } },
{ "type": "Feature", "properties": { "name": "重庆市开州区陈家中学", "lon": 108.30584, "lat": 30.99776, "area": "开州区", "address": "重庆市开州区长沙镇山花街1号", "rank": 1 }, "geometry": { "type": "Point", "coordinates": [ 108.30584, 30.99776 ] } },
{ "type": "Feature", "properties": { "name": "铁桥中学", "lon": 108.13341, "lat": 31.03807, "area": "开州区", "address": "重庆市开州区渝巫路南50米", "rank": 1 }, "geometry": { "type": "Point", "coordinates": [ 108.13341, 31.03807 ] } },
{ "type": "Feature", "properties": { "name": "开州区丰乐中学", "lon": 108.42455, "lat": 31.20821, "area": "开州区", "address": "重庆市开州区文华路与永丰街交叉口北约20米", "rank": 1 }, "geometry": { "type": "Point", "coordinates": [ 108.42455, 31.20821 ] } },
{ "type": "Feature", "properties": { "name": "重庆市开州区临江中学", "lon": 108.213441, "lat": 31.104251910236631, "area": "开州区", "address": "重庆市开州区临江镇大兴街337号", "rank": 1 }, "geometry": { "type": "Point", "coordinates": [ 108.21344, 31.10425 ] } },
{ "type": "Feature", "properties": { "name": "开州区中和中学", "lon": 108.13916, "lat": 31.17624, "area": "开州区", "address": "中和镇鹤林街399号", "rank": 1 }, "geometry": { "type": "Point", "coordinates": [ 108.13916, 31.17624 ] } },
{ "type": "Feature", "properties": { "name": "开州中学", "lon": 108.38044, "lat": 31.16451, "area": "开州区", "address": "重庆市开州区开州大道西138号", "rank": 1 }, "geometry": { "type": "Point", "coordinates": [ 108.38044, 31.16451 ] } },
{ "type": "Feature", "properties": { "name": "重庆市开州区实验中学", "lon": 108.36063, "lat": 31.16074, "area": "开州区", "address": "重庆市开州区桔乡路465号", "rank": 1 }, "geometry": { "type": "Point", "coordinates": [ 108.36063, 31.16074 ] } },
{ "type": "Feature", "properties": { "name": "重庆市梁平中学", "lon": 107.76629, "lat": 30.66001, "area": "梁平区", "address": "重庆市梁平区梁山街道迎宾路93号", "rank": 1 }, "geometry": { "type": "Point", "coordinates": [ 107.76629, 30.66001 ] } },
{ "type": "Feature", "properties": { "name": "西南大学附属重庆市梁平实验中学", "lon": 107.7419, "lat": 30.64933, "area": "梁平区", "address": "重庆市梁平区双桂街道碧湖大道12号", "rank": 1 }, "geometry": { "type": "Point", "coordinates": [ 107.7419, 30.64933 ] } },
{ "type": "Feature", "properties": { "name": "福禄中学", "lon": 107.964, "lat": 30.65707, "area": "梁平区", "address": "重庆市梁平区福兴街福地一号西北侧约210米", "rank": 1 }, "geometry": { "type": "Point", "coordinates": [ 107.964, 30.65707 ] } },
{ "type": "Feature", "properties": { "name": "袁驿中学", "lon": 107.51969, "lat": 30.73809, "area": "梁平区", "address": "重庆市梁平区袁驿镇兴山村二组", "rank": 1 }, "geometry": { "type": "Point", "coordinates": [ 107.51969, 30.73809 ] } },
{ "type": "Feature", "properties": { "name": "重庆市梁平红旗中学", "lon": 107.798849, "lat": 30.668016760723567, "area": "梁平区", "address": "重庆市梁平区人民南路南50米", "rank": 1 }, "geometry": { "type": "Point", "coordinates": [ 107.79885, 30.66802 ] } },
{ "type": "Feature", "properties": { "name": "屏锦中学", "lon": 107.54293, "lat": 30.59108, "area": "梁平区", "address": "重庆市梁平区大水巷50号", "rank": 1 }, "geometry": { "type": "Point", "coordinates": [ 107.54293, 30.59108 ] } },
{ "type": "Feature", "properties": { "name": "重庆市武隆区第一初级中学", "lon": 107.816867, "lat": 29.302885723169656, "area": "武隆区", "address": "重庆市武隆区凤山街道办事处城东村棉花坝组100号", "rank": 1 }, "geometry": { "type": "Point", "coordinates": [ 107.81687, 29.30289 ] } },
{ "type": "Feature", "properties": { "name": "白马中学校", "lon": 107.53486, "lat": 29.38879, "area": "武隆区", "address": "重庆市武隆区园区东路38号", "rank": 1 }, "geometry": { "type": "Point", "coordinates": [ 107.53486, 29.38879 ] } },
{ "type": "Feature", "properties": { "name": "鸭江中学", "lon": 107.37704, "lat": 29.45229, "area": "武隆区", "address": "重庆市武隆区金江街20号", "rank": 1 }, "geometry": { "type": "Point", "coordinates": [ 107.37704, 29.45229 ] } },
{ "type": "Feature", "properties": { "name": "长坝中学", "lon": 107.47334, "lat": 29.32864, "area": "武隆区", "address": "重庆市武隆区长坝镇正宜街155号", "rank": 1 }, "geometry": { "type": "Point", "coordinates": [ 107.47334, 29.32864 ] } },
{ "type": "Feature", "properties": { "name": "重庆师范大学附属城口实验中学", "lon": 108.674694, "lat": 31.93883315195918, "area": "城口县", "address": "重庆市城口县S301美都香榭东侧约160米", "rank": 1 }, "geometry": { "type": "Point", "coordinates": [ 108.67469, 31.93883 ] } },
{ "type": "Feature", "properties": { "name": "城口中学", "lon": 108.6604, "lat": 31.94541, "area": "城口县", "address": "重庆市城口县葛城镇南大街13号（文化路附近）", "rank": 1 }, "geometry": { "type": "Point", "coordinates": [ 108.6604, 31.94541 ] } },
{ "type": "Feature", "properties": { "name": "丰都实验中学校", "lon": 107.69756, "lat": 29.87498, "area": "丰都县", "address": "重庆市丰都县东作门街129号", "rank": 1 }, "geometry": { "type": "Point", "coordinates": [ 107.69756, 29.87498 ] } },
{ "type": "Feature", "properties": { "name": "丰都县第一中学", "lon": 107.98826, "lat": 29.84322, "area": "丰都县", "address": "重庆市丰都县自强街2号", "rank": 1 }, "geometry": { "type": "Point", "coordinates": [ 107.98826, 29.84322 ] } },
{ "type": "Feature", "properties": { "name": "重庆市丰都第二中学校", "lon": 107.865724, "lat": 30.026622145528762, "area": "丰都县", "address": "重庆市丰都县高家镇柏林路", "rank": 1 }, "geometry": { "type": "Point", "coordinates": [ 107.86572, 30.02662 ] } },
{ "type": "Feature", "properties": { "name": "丰都县第三中学校", "lon": 107.6242, "lat": 30.00138, "area": "丰都县", "address": "重庆市丰都县社坛镇第三中学校", "rank": 1 }, "geometry": { "type": "Point", "coordinates": [ 107.6242, 30.00138 ] } },
{ "type": "Feature", "properties": { "name": "重庆市丰都中学校", "lon": 107.721271, "lat": 29.859520075182164, "area": "丰都县", "address": "重庆市丰都县南天湖西路19号", "rank": 1 }, "geometry": { "type": "Point", "coordinates": [ 107.72127, 29.85952 ] } },
{ "type": "Feature", "properties": { "name": "垫江八中", "lon": 107.26153, "lat": 30.2173, "area": "垫江县", "address": "重庆市垫江县澄溪镇人民路409号", "rank": 1 }, "geometry": { "type": "Point", "coordinates": [ 107.26153, 30.2173 ] } },
{ "type": "Feature", "properties": { "name": "垫江中学", "lon": 107.37986, "lat": 30.36403, "area": "垫江县", "address": "重庆市垫江县桂溪街道峡口社区卫生室近", "rank": 1 }, "geometry": { "type": "Point", "coordinates": [ 107.37986, 30.36403 ] } },
{ "type": "Feature", "properties": { "name": "重庆市垫江实验中学校", "lon": 107.35252, "lat": 30.33351, "area": "垫江县", "address": "重庆市垫江县保合路18号", "rank": 1 }, "geometry": { "type": "Point", "coordinates": [ 107.35252, 30.33351 ] } },
{ "type": "Feature", "properties": { "name": "垫江第一中学校", "lon": 107.33847, "lat": 30.34226, "area": "垫江县", "address": "重庆市垫江县桂西大道北段255号", "rank": 1 }, "geometry": { "type": "Point", "coordinates": [ 107.33847, 30.34226 ] } },
{ "type": "Feature", "properties": { "name": "垫江四中", "lon": 107.54474, "lat": 30.41075, "area": "垫江县", "address": "重庆市垫江县油房街38号", "rank": 1 }, "geometry": { "type": "Point", "coordinates": [ 107.54474, 30.41075 ] } },
{ "type": "Feature", "properties": { "name": "重庆垫江三中", "lon": 107.46354, "lat": 30.28587, "area": "垫江县", "address": "重庆市垫江县高安镇顺河街147号", "rank": 1 }, "geometry": { "type": "Point", "coordinates": [ 107.46354, 30.28587 ] } },
{ "type": "Feature", "properties": { "name": "垫江二中", "lon": 107.34952, "lat": 30.08538, "area": "垫江县", "address": "重庆市垫江县团林街47号", "rank": 1 }, "geometry": { "type": "Point", "coordinates": [ 107.34952, 30.08538 ] } },
{ "type": "Feature", "properties": { "name": "垫江第五中学校", "lon": 107.431407, "lat": 30.092769779284851, "area": "垫江县", "address": "重庆市垫江县坪山镇回兴街139号", "rank": 1 }, "geometry": { "type": "Point", "coordinates": [ 107.43141, 30.09277 ] } },
{ "type": "Feature", "properties": { "name": "忠州中学", "lon": 108.03654, "lat": 30.2939, "area": "忠县", "address": "重庆市忠县东坡路40号", "rank": 1 }, "geometry": { "type": "Point", "coordinates": [ 108.03654, 30.2939 ] } },
{ "type": "Feature", "properties": { "name": "忠县石宝中学", "lon": 108.19316, "lat": 30.42812, "area": "忠县", "address": "重庆市忠县石宝镇临溪街1号", "rank": 1 }, "geometry": { "type": "Point", "coordinates": [ 108.19316, 30.42812 ] } },
{ "type": "Feature", "properties": { "name": "汝溪中学", "lon": 108.06715, "lat": 30.4951, "area": "忠县", "address": "重庆市忠县镇江路137号", "rank": 1 }, "geometry": { "type": "Point", "coordinates": [ 108.06715, 30.4951 ] } },
{ "type": "Feature", "properties": { "name": "重庆市忠县新立中学校", "lon": 107.66171, "lat": 30.28092, "area": "忠县", "address": "重庆市忠县忠州镇新立街2号", "rank": 1 }, "geometry": { "type": "Point", "coordinates": [ 107.66171, 30.28092 ] } },
{ "type": "Feature", "properties": { "name": "拔山中学", "lon": 107.75111, "lat": 30.29626, "area": "忠县", "address": "重庆市忠县朝阳路666号", "rank": 1 }, "geometry": { "type": "Point", "coordinates": [ 107.75111, 30.29626 ] } },
{ "type": "Feature", "properties": { "name": "忠县三汇中学", "lon": 107.86989, "lat": 30.38051, "area": "忠县", "address": "重庆市忠县滨河路34号西北方向152米", "rank": 1 }, "geometry": { "type": "Point", "coordinates": [ 107.86989, 30.38051 ] } },
{ "type": "Feature", "properties": { "name": "忠县中学校", "lon": 108.0584, "lat": 30.32658, "area": "忠县", "address": "重庆市忠县忠州街道精忠路1号", "rank": 1 }, "geometry": { "type": "Point", "coordinates": [ 108.0584, 30.32658 ] } },
{ "type": "Feature", "properties": { "name": "重庆市云阳高级中学校", "lon": 108.70242, "lat": 30.92654, "area": "云阳县", "address": "重庆市云阳县云江大道1069号", "rank": 1 }, "geometry": { "type": "Point", "coordinates": [ 108.70242, 30.92654 ] } },
{ "type": "Feature", "properties": { "name": "重庆市云阳凤鸣中学校", "lon": 108.747123, "lat": 30.868364900385533, "area": "云阳县", "address": "重庆市云阳县凤鸣镇凤中路25号", "rank": 1 }, "geometry": { "type": "Point", "coordinates": [ 108.74712, 30.86836 ] } },
{ "type": "Feature", "properties": { "name": "重庆市云阳盘石中学校", "lon": 108.713631, "lat": 30.906140113345824, "area": "云阳县", "address": "重庆市云阳县盘龙街道永兴路133号", "rank": 1 }, "geometry": { "type": "Point", "coordinates": [ 108.71363, 30.90614 ] } },
{ "type": "Feature", "properties": { "name": "双江中学", "lon": 108.69224, "lat": 30.94254, "area": "云阳县", "address": "重庆市云阳县双江镇滨江大道3496号", "rank": 1 }, "geometry": { "type": "Point", "coordinates": [ 108.69224, 30.94254 ] } },
{ "type": "Feature", "properties": { "name": "江口中学", "lon": 108.77161, "lat": 31.23243, "area": "云阳县", "address": "重庆市云阳县200号", "rank": 1 }, "geometry": { "type": "Point", "coordinates": [ 108.77161, 31.23243 ] } },
{ "type": "Feature", "properties": { "name": "高阳中学", "lon": 108.68294, "lat": 31.0989, "area": "云阳县", "address": "重庆市渝县云阳县青龙路与小岭路交叉路口往东约140米", "rank": 1 }, "geometry": { "type": "Point", "coordinates": [ 108.68294, 31.0989 ] } },
{ "type": "Feature", "properties": { "name": "重庆市云阳实验中学校", "lon": 108.71586, "lat": 30.94275, "area": "云阳县", "address": "重庆市云阳县双江街道北城大道366号", "rank": 1 }, "geometry": { "type": "Point", "coordinates": [ 108.71586, 30.94275 ] } },
{ "type": "Feature", "properties": { "name": "重庆市云阳县南溪中学校", "lon": 108.835957, "lat": 31.114320673032061, "area": "云阳县", "address": "重庆市云阳县卫星村9组", "rank": 1 }, "geometry": { "type": "Point", "coordinates": [ 108.83596, 31.11432 ] } },
{ "type": "Feature", "properties": { "name": "重庆市奉节县长龙实验中学", "lon": 109.19863, "lat": 31.12816, "area": "奉节县", "address": "重庆市奉节县S103", "rank": 1 }, "geometry": { "type": "Point", "coordinates": [ 109.19863, 31.12816 ] } },
{ "type": "Feature", "properties": { "name": "重庆市奉节永安中学校", "lon": 109.47549, "lat": 31.00731, "area": "奉节县", "address": "重庆市奉节县G242与S201交叉口东南方向170米", "rank": 1 }, "geometry": { "type": "Point", "coordinates": [ 109.47549, 31.00731 ] } },
{ "type": "Feature", "properties": { "name": "重庆市奉节中学校", "lon": 109.431349, "lat": 31.029783141959559, "area": "奉节县", "address": "重庆市奉节县城西连接道17-2-801号", "rank": 1 }, "geometry": { "type": "Point", "coordinates": [ 109.43135, 31.02978 ] } },
{ "type": "Feature", "properties": { "name": "吐祥中学", "lon": 109.16588, "lat": 30.70684, "area": "奉节县", "address": "重庆市奉节县402省道旁", "rank": 1 }, "geometry": { "type": "Point", "coordinates": [ 109.16588, 30.70684 ] } },
{ "type": "Feature", "properties": { "name": "重庆市奉节夔门高级中学", "lon": 109.54888, "lat": 31.04597, "area": "奉节县", "address": "重庆市奉节县夔门街道鱼复路555号", "rank": 1 }, "geometry": { "type": "Point", "coordinates": [ 109.54888, 31.04597 ] } },
{ "type": "Feature", "properties": { "name": "重庆市巫山第二中学", "lon": 109.889697, "lat": 31.098487151353275, "area": "巫山县", "address": "重庆市巫山县绕城路东100米(朝云公园对面)", "rank": 1 }, "geometry": { "type": "Point", "coordinates": [ 109.8897, 31.09849 ] } },
{ "type": "Feature", "properties": { "name": "重庆市巫山中学", "lon": 109.86529, "lat": 31.08022, "area": "巫山县", "address": "重庆市巫山县巫峡镇巫峡路448号", "rank": 1 }, "geometry": { "type": "Point", "coordinates": [ 109.86529, 31.08022 ] } },
{ "type": "Feature", "properties": { "name": "官渡中学", "lon": 109.850124, "lat": 30.963596628732279, "area": "巫山县", "address": "重庆市巫山县双桥街60号", "rank": 1 }, "geometry": { "type": "Point", "coordinates": [ 109.85012, 30.9636 ] } },
{ "type": "Feature", "properties": { "name": "重庆市巫山大昌中学校", "lon": 109.820617, "lat": 31.256962447238664, "area": "巫山县", "address": "重庆市巫山县深圳南二路45号", "rank": 1 }, "geometry": { "type": "Point", "coordinates": [ 109.82062, 31.25696 ] } },
{ "type": "Feature", "properties": { "name": "巫溪县白马中学校", "lon": 109.56046, "lat": 31.40105, "area": "巫溪县", "address": "重庆市巫溪县丰益路300号", "rank": 1 }, "geometry": { "type": "Point", "coordinates": [ 109.56046, 31.40105 ] } },
{ "type": "Feature", "properties": { "name": "重庆市巫溪县中学校", "lon": 109.61095, "lat": 31.39297, "area": "巫溪县", "address": "重庆市巫溪县十字路1号", "rank": 1 }, "geometry": { "type": "Point", "coordinates": [ 109.61095, 31.39297 ] } },
{ "type": "Feature", "properties": { "name": "巫溪县上磺中学校", "lon": 109.47525, "lat": 31.31653, "area": "巫溪县", "address": "重庆市巫溪县G242", "rank": 1 }, "geometry": { "type": "Point", "coordinates": [ 109.47525, 31.31653 ] } },
{ "type": "Feature", "properties": { "name": "尖山中学", "lon": 108.95115, "lat": 31.42686, "area": "巫溪县", "address": "重庆市巫溪县百步村", "rank": 1 }, "geometry": { "type": "Point", "coordinates": [ 108.95115, 31.42686 ] } },
{ "type": "Feature", "properties": { "name": "重庆市石柱回龙中学校", "lon": 108.14884, "lat": 30.00939, "area": "石柱土家族自治县", "address": "重庆市石柱土家族自治县南宾街道城南北路32号", "rank": 1 }, "geometry": { "type": "Point", "coordinates": [ 108.14884, 30.00939 ] } },
{ "type": "Feature", "properties": { "name": "民族中学", "lon": 108.11522, "lat": 29.99539, "area": "石柱土家族自治县", "address": "重庆市石柱土家族自治县万寿大道103号", "rank": 1 }, "geometry": { "type": "Point", "coordinates": [ 108.11522, 29.99539 ] } },
{ "type": "Feature", "properties": { "name": "石柱土家族自治县西沱中学校(A区)", "lon": 108.21436, "lat": 30.4058, "area": "石柱土家族自治县", "address": "重庆市石柱土家族自治县月台路187号", "rank": 1 }, "geometry": { "type": "Point", "coordinates": [ 108.21436, 30.4058 ] } },
{ "type": "Feature", "properties": { "name": "石柱中学", "lon": 108.12789, "lat": 29.99273, "area": "石柱土家族自治县", "address": "重庆市石柱土家族自治县万寿大道18号", "rank": 1 }, "geometry": { "type": "Point", "coordinates": [ 108.12789, 29.99273 ] } },
{ "type": "Feature", "properties": { "name": "秀山高级中学", "lon": 108.97565, "lat": 28.44095, "area": "秀山土家族苗族自治县", "address": "重庆市秀山土家族苗族自治县渝秀大道189号", "rank": 1 }, "geometry": { "type": "Point", "coordinates": [ 108.97565, 28.44095 ] } },
{ "type": "Feature", "properties": { "name": "秀山一中", "lon": 108.9872, "lat": 28.46638, "area": "秀山土家族苗族自治县", "address": "重庆市秀山土家族苗族自治县双桥巷2号", "rank": 1 }, "geometry": { "type": "Point", "coordinates": [ 108.9872, 28.46638 ] } },
{ "type": "Feature", "properties": { "name": "重庆市酉阳第二中学校", "lon": 108.76686, "lat": 28.87701, "area": "酉阳土家族苗族自治县", "address": "重庆市酉阳土家族苗族自治县桃花源大道北路20号", "rank": 1 }, "geometry": { "type": "Point", "coordinates": [ 108.76686, 28.87701 ] } },
{ "type": "Feature", "properties": { "name": "重庆市酉阳第一中学校(高中部)", "lon": 108.96446, "lat": 28.76847, "area": "酉阳土家族苗族自治县", "address": "重庆市酉阳土家族苗族自治县龙潭镇渝湘路82号", "rank": 1 }, "geometry": { "type": "Point", "coordinates": [ 108.96446, 28.76847 ] } },
{ "type": "Feature", "properties": { "name": "酉阳县土家族苗族自治县第三中学校", "lon": 108.55436, "lat": 28.77082, "area": "酉阳土家族苗族自治县", "address": "重庆市酉阳土家族苗族自治县丁市镇县304省道国家电网对面", "rank": 1 }, "geometry": { "type": "Point", "coordinates": [ 108.55436, 28.77082 ] } },
{ "type": "Feature", "properties": { "name": "酉阳四中", "lon": 109.13071, "lat": 28.96962, "area": "酉阳土家族苗族自治县", "address": "重庆市酉阳土家族苗族自治县溪口村1组", "rank": 1 }, "geometry": { "type": "Point", "coordinates": [ 109.13071, 28.96962 ] } },
{ "type": "Feature", "properties": { "name": "重庆市彭水第一中学校", "lon": 108.23344, "lat": 29.34177, "area": "彭水苗族土家族自治县", "address": "重庆市彭水苗族土家族自治县羊头铺社区", "rank": 1 }, "geometry": { "type": "Point", "coordinates": [ 108.23344, 29.34177 ] } },
{ "type": "Feature", "properties": { "name": "彭水中学", "lon": 108.156479, "lat": 29.286185963144341, "area": "彭水苗族土家族自治县", "address": "重庆市彭水苗族土家族自治县绍庆街道河堡社区学府路1号", "rank": 1 }, "geometry": { "type": "Point", "coordinates": [ 108.15648, 29.28619 ] } },
{ "type": "Feature", "properties": { "name": "重庆市彭水县民族中学校", "lon": 108.08191, "lat": 29.282, "area": "彭水苗族土家族自治县", "address": "重庆市彭水苗族土家族自治县靛水社区新城公安大楼旁", "rank": 1 }, "geometry": { "type": "Point", "coordinates": [ 108.08191, 29.282 ] } },
{ "type": "Feature", "properties": { "name": "重庆第一双语学校", "lon": 106.53075, "lat": 29.66144, "area": "渝北区", "address": "重庆市渝北区湖霞街2号", "rank": 1 }, "geometry": { "type": "Point", "coordinates": [ 106.53075, 29.66144 ] } },
{ "type": "Feature", "properties": { "name": "西大两江实验学校", "lon": 106.50381, "lat": 29.7015, "area": "北碚区", "address": "重庆市北碚区长平路666号", "rank": 1 }, "geometry": { "type": "Point", "coordinates": [ 106.50381, 29.7015 ] } },
{ "type": "Feature", "properties": { "name": "重庆两江育才中学(鸳鸯校区)", "lon": 106.55312, "lat": 29.66702, "area": "渝北区", "address": "重庆市渝北区鸳鸯北路23号", "rank": 1 }, "geometry": { "type": "Point", "coordinates": [ 106.55312, 29.66702 ] } },
{ "type": "Feature", "properties": { "name": "重庆市礼嘉中学校", "lon": 106.49392, "lat": 29.6758, "area": "渝北区", "address": "重庆市渝北区礼嘉街道礼智街22号", "rank": 1 }, "geometry": { "type": "Point", "coordinates": [ 106.49392, 29.6758 ] } },
{ "type": "Feature", "properties": { "name": "重庆高新区第一实验小学", "lon": 106.47993, "lat": 29.54002, "area": "九龙坡区", "address": "重庆市九龙坡区枫丹路222号", "rank": 1 }, "geometry": { "type": "Point", "coordinates": [ 106.47993, 29.54002 ] } },
{ "type": "Feature", "properties": { "name": "重庆巴蜀科学城中学", "lon": 106.28193, "lat": 29.59901, "area": "沙坪坝区", "address": "重庆市沙坪坝区虎溪街道学智路789号", "rank": 1 }, "geometry": { "type": "Point", "coordinates": [ 106.28193, 29.59901 ] } },
{ "type": "Feature", "properties": { "name": "重庆市八中科学城中学", "lon": 106.364329, "lat": 29.512954143672975, "area": "九龙坡区", "address": "重庆市九龙坡区含谷镇天赐路76号附8号", "rank": 1 }, "geometry": { "type": "Point", "coordinates": [ 106.36433, 29.51295 ] } },
{ "type": "Feature", "properties": { "name": "重庆市大学城第一中学校", "lon": 106.306607, "lat": 29.593650127612978, "area": "大足区", "address": "重庆市沙坪坝区景瑞路2号", "rank": 1 }, "geometry": { "type": "Point", "coordinates": [ 106.30661, 29.59365 ] } },
{ "type": "Feature", "properties": { "name": "重庆市第四十九中学校", "lon": 106.91349, "lat": 28.97033, "area": "綦江区", "address": "重庆市万盛经开区四十九中路30号", "rank": 1 }, "geometry": { "type": "Point", "coordinates": [ 106.91349, 28.97033 ] } },
{ "type": "Feature", "properties": { "name": "重庆万州纯阳学校", "lon": 108.34366, "lat": 30.71052, "area": "万州区", "address": "重庆市万州区高峰镇兴隆街88号", "rank": 1 }, "geometry": { "type": "Point", "coordinates": [ 108.34366, 30.71052 ] } },
{ "type": "Feature", "properties": { "name": "赛德国际学校", "lon": 108.38705, "lat": 30.76548, "area": "万州区", "address": "重庆市万州区沙龙路三段万全路59号", "rank": 1 }, "geometry": { "type": "Point", "coordinates": [ 108.38705, 30.76548 ] } },
{ "type": "Feature", "properties": { "name": "重庆市涪陵外国语学校", "lon": 107.26653, "lat": 29.72039, "area": "涪陵区", "address": "重庆市涪陵区学府路2号", "rank": 1 }, "geometry": { "type": "Point", "coordinates": [ 107.26653, 29.72039 ] } },
{ "type": "Feature", "properties": { "name": "重庆市第二外国语学校", "lon": 106.60618, "lat": 29.54476, "area": "南岸区", "address": "重庆市南岸区崇文路26号", "rank": 1 }, "geometry": { "type": "Point", "coordinates": [ 106.60618, 29.54476 ] } },
{ "type": "Feature", "properties": { "name": "重庆市江南常春藤学校", "lon": 106.66974, "lat": 29.53038, "area": "南岸区", "address": "重庆市南岸区江峡路2号", "rank": 1 }, "geometry": { "type": "Point", "coordinates": [ 106.66974, 29.53038 ] } },
{ "type": "Feature", "properties": { "name": "重庆市大足城南中学校", "lon": 105.73594, "lat": 29.69264, "area": "大足区", "address": "重庆市大足区棠凤路214号", "rank": 1 }, "geometry": { "type": "Point", "coordinates": [ 105.73594, 29.69264 ] } },
{ "type": "Feature", "properties": { "name": "重庆市大足迪涛学校", "lon": 105.70369, "lat": 29.6916, "area": "大足区", "address": "重庆市大足区二环南路88号", "rank": 1 }, "geometry": { "type": "Point", "coordinates": [ 105.70369, 29.6916 ] } },
{ "type": "Feature", "properties": { "name": "重庆德普外国语学校", "lon": 106.5443, "lat": 29.40643, "area": "巴南区", "address": "重庆市巴南区鱼洞街道渝南大道旭辉城东边万达广场旁", "rank": 1 }, "geometry": { "type": "Point", "coordinates": [ 106.5443, 29.40643 ] } },
{ "type": "Feature", "properties": { "name": "史迪威外语学校南侧", "lon": 106.614694, "lat": 29.467323237502232, "area": "巴南区", "address": "天鹿大道重庆八中宏帆初级中学校西南侧约50米南侧", "rank": 1 }, "geometry": { "type": "Point", "coordinates": [ 106.61469, 29.46732 ] } },
{ "type": "Feature", "properties": { "name": "重庆巴南育才实验中学校", "lon": 106.54343, "lat": 29.38314, "area": "巴南区", "address": "重庆市巴南区龙兰街重庆巴南巴蜀小学南侧约180米", "rank": 1 }, "geometry": { "type": "Point", "coordinates": [ 106.54343, 29.38314 ] } },
{ "type": "Feature", "properties": { "name": "国维教育艺体培训中心(黔江校区)", "lon": 108.828013, "lat": 29.529485342680303, "area": "黔江区", "address": "重庆市黔江区武陵大道西50米", "rank": 1 }, "geometry": { "type": "Point", "coordinates": [ 108.82801, 29.52949 ] } },
{ "type": "Feature", "properties": { "name": "重庆市远恒佳学校", "lon": 107.24753, "lat": 29.93497, "area": "长寿区", "address": "重庆市长寿区龙湖大道25号", "rank": 1 }, "geometry": { "type": "Point", "coordinates": [ 107.24753, 29.93497 ] } },
{ "type": "Feature", "properties": { "name": "重庆枫叶国际学校", "lon": 105.94309, "lat": 29.35226, "area": "永川区", "address": "重庆市永川区学府大道777号", "rank": 1 }, "geometry": { "type": "Point", "coordinates": [ 105.94309, 29.35226 ] } },
{ "type": "Feature", "properties": { "name": "重庆市巴川中学", "lon": 106.06426, "lat": 29.84212, "area": "铜梁区", "address": "重庆市铜梁区塔山东街666号", "rank": 1 }, "geometry": { "type": "Point", "coordinates": [ 106.06426, 29.84212 ] } },
{ "type": "Feature", "properties": { "name": "重庆市荣昌区大成中学校", "lon": 105.597157, "lat": 29.399762779201335, "area": "荣昌区", "address": "重庆市荣昌区育才路50号", "rank": 1 }, "geometry": { "type": "Point", "coordinates": [ 105.59716, 29.39976 ] } },
{ "type": "Feature", "properties": { "name": "重庆市开州区敬业中学", "lon": 108.40546, "lat": 31.17515, "area": "开州区", "address": "重庆市开州区锦程路206号", "rank": 1 }, "geometry": { "type": "Point", "coordinates": [ 108.40546, 31.17515 ] } },
{ "type": "Feature", "properties": { "name": "重庆市梁平区第一中学校", "lon": 107.80363, "lat": 30.67086, "area": "梁平区", "address": "重庆市梁平区人民南路309号", "rank": 1 }, "geometry": { "type": "Point", "coordinates": [ 107.80363, 30.67086 ] } },
{ "type": "Feature", "properties": { "name": "重庆市丰都县同文学校", "lon": 107.72273, "lat": 29.85618, "area": "丰都县", "address": "重庆市丰都县雪玉路丰都中学校东南侧约90米", "rank": 1 }, "geometry": { "type": "Point", "coordinates": [ 107.72273, 29.85618 ] } },
{ "type": "Feature", "properties": { "name": "重庆市中山外国语学校", "lon": 108.70994, "lat": 30.93363, "area": "云阳县", "address": "重庆市云阳县望江大道428号", "rank": 1 }, "geometry": { "type": "Point", "coordinates": [ 108.70994, 30.93363 ] } },
{ "type": "Feature", "properties": { "name": "重庆为明学校", "lon": 106.55188, "lat": 29.63874, "area": "渝北区", "address": "重庆市渝北区金福路1号", "rank": 1 }, "geometry": { "type": "Point", "coordinates": [ 106.55188, 29.63874 ] } },
{ "type": "Feature", "properties": { "name": "重庆巴蜀常春藤学校", "lon": 106.666511, "lat": 29.790128703283482, "area": "渝北区", "address": "重庆市渝北区空港东路766号", "rank": 1 }, "geometry": { "type": "Point", "coordinates": [ 106.66651, 29.79013 ] } },
{ "type": "Feature", "properties": { "name": "重庆市巴渝学校", "lon": 106.46273, "lat": 29.4901, "area": "大渡口区", "address": "重庆市大渡口区双山路256号", "rank": 1 }, "geometry": { "type": "Point", "coordinates": [ 106.46273, 29.4901 ] } },
{ "type": "Feature", "properties": { "name": "重庆市江津区京师实验学校", "lon": 106.24881, "lat": 29.32129, "area": "江津区", "address": "重庆市江津区滨江新城圣泉街道办事处南北大道505号", "rank": 1 }, "geometry": { "type": "Point", "coordinates": [ 106.24881, 29.32129 ] } },
{ "type": "Feature", "properties": { "name": "巴川量子中学", "lon": 106.56227, "lat": 29.59483, "area": "江北区", "address": "重庆市江北区新溉大道巴川量子中学", "rank": 1 }, "geometry": { "type": "Point", "coordinates": [ 106.56227, 29.59483 ] } },
{ "type": "Feature", "properties": { "name": "重庆市渝高中学校(二郎校区)", "lon": 106.46333, "lat": 29.50463, "area": "九龙坡区", "address": "重庆市九龙坡区新区大道99号", "rank": 1 }, "geometry": { "type": "Point", "coordinates": [ 106.46333, 29.50463 ] } },
{ "type": "Feature", "properties": { "name": "重庆市万州国本中学校", "lon": 108.3844, "lat": 30.77343, "area": "万州区", "address": "重庆市万州区石峰路2号", "rank": 1 }, "geometry": { "type": "Point", "coordinates": [ 108.3844, 30.77343 ] } },
{ "type": "Feature", "properties": { "name": "重庆二十九中学", "lon": 106.50102, "lat": 29.552, "area": "渝中区", "address": "重庆市渝中区化龙桥240号", "rank": 1 }, "geometry": { "type": "Point", "coordinates": [ 106.50102, 29.552 ] } },
{ "type": "Feature", "properties": { "name": "重庆市字水中学(东区)", "lon": 106.55055, "lat": 29.58598, "area": "江北区", "address": "重庆市江北区五里店红土地1号", "rank": 1 }, "geometry": { "type": "Point", "coordinates": [ 106.55055, 29.58598 ] } },
{ "type": "Feature", "properties": { "name": "重庆市字水中学(南桥寺校区)", "lon": 106.47505, "lat": 29.59925, "area": "江北区", "address": "重庆市江北区福源路51号", "rank": 1 }, "geometry": { "type": "Point", "coordinates": [ 106.47505, 29.59925 ] } },
{ "type": "Feature", "properties": { "name": "重庆市杨家坪中学B区", "lon": 106.49989, "lat": 29.5135, "area": "九龙坡区", "address": "重庆市九龙坡区冶金路冶金三村6号", "rank": 1 }, "geometry": { "type": "Point", "coordinates": [ 106.49989, 29.5135 ] } },
{ "type": "Feature", "properties": { "name": "重庆市杨家坪中学(彩云湖校区)", "lon": 106.47584, "lat": 29.51619, "area": "九龙坡区", "address": "重庆市九龙坡区科城路139号", "rank": 1 }, "geometry": { "type": "Point", "coordinates": [ 106.47584, 29.51619 ] } },
{ "type": "Feature", "properties": { "name": "重庆育才中学(大公馆校区)", "lon": 106.50316, "lat": 29.52125, "area": "九龙坡区", "address": "重庆市九龙坡区石坪桥街道石坪村15号", "rank": 1 }, "geometry": { "type": "Point", "coordinates": [ 106.50316, 29.52125 ] } },
{ "type": "Feature", "properties": { "name": "重庆育才中学(九龙园校区)", "lon": 106.48455, "lat": 29.50399, "area": "九龙坡区", "address": "重庆市九龙坡区火炬大道9号", "rank": 1 }, "geometry": { "type": "Point", "coordinates": [ 106.48455, 29.50399 ] } },
{ "type": "Feature", "properties": { "name": "重庆两江育才中学(人和校区)", "lon": 106.53128, "lat": 29.6386, "area": "九龙坡区", "address": "重庆市渝北区镜泊中路56号", "rank": 1 }, "geometry": { "type": "Point", "coordinates": [ 106.53128, 29.6386 ] } },
{ "type": "Feature", "properties": { "name": "重庆市松树桥中学校(B校区)", "lon": 106.488029, "lat": 29.596904495448197, "area": "渝北区", "address": "重庆市渝北区龙山街道旗龙路66号", "rank": 1 }, "geometry": { "type": "Point", "coordinates": [ 106.48803, 29.5969 ] } }
]
}
