{
"type": "FeatureCollection",
"name": "school",
"crs": { "type": "name", "properties": { "name": "urn:ogc:def:crs:OGC:1.3:CRS84" } },
"features": [
{ "type": "Feature", "properties": { "fid": 1, "学校名称": "西南大学附属中学 ", "地区": "北碚区", "name": "西南大学附属中学(本部)", "lon": 106.43816, "lat": 29.840809, "area": "北碚区", "address": "重庆市北碚区杜家街43号" }, "geometry": { "type": "Point", "coordinates": [ 106.42772, 29.83701 ] } },
{ "type": "Feature", "properties": { "fid": 2, "学校名称": "兼善中学 ", "地区": "北碚区", "name": "重庆市兼善中学", "lon": 106.451879, "lat": 29.822594, "area": "北碚区", "address": "重庆市北碚区毛背沱137号" }, "geometry": { "type": "Point", "coordinates": [ 106.44145, 29.8188 ] } },
{ "type": "Feature", "properties": { "fid": 3, "学校名称": "江北中学 ", "地区": "北碚区", "name": "重庆市江北中学校(本部校区)", "lon": 106.506242, "lat": 29.792915, "area": "北碚区", "address": "重庆市北碚区新华路171号" }, "geometry": { "type": "Point", "coordinates": [ 106.49576, 29.78988 ] } },
{ "type": "Feature", "properties": { "fid": 4, "学校名称": "朝阳中学 ", "地区": "北碚区", "name": "重庆市朝阳中学(北校区)", "lon": 106.450707, "lat": 29.828037, "area": "北碚区", "address": "重庆市北碚区嘉陵村1号" }, "geometry": { "type": "Point", "coordinates": [ 106.44028, 29.82423 ] } },
{ "type": "Feature", "properties": { "fid": 5, "学校名称": "王朴中学 ", "地区": "北碚区", "name": "重庆市王朴中学校", "lon": 106.571913, "lat": 29.892038, "area": "北碚区", "address": "重庆市北碚区桥亭街6号" }, "geometry": { "type": "Point", "coordinates": [ 106.55925, 29.88946 ] } },
{ "type": "Feature", "properties": { "fid": 6, "学校名称": "重庆市第四十八中学 ", "地区": "北碚区", "name": "重庆四十八中学校", "lon": 106.382434, "lat": 29.774169, "area": "北碚区", "address": "重庆市北碚区双凤桥27号（六九〇五工厂医院斜对面）" }, "geometry": { "type": "Point", "coordinates": [ 106.37184, 29.77098 ] } },
{ "type": "Feature", "properties": { "fid": 7, "学校名称": "重庆市第一中学 ", "地区": "沙坪坝区", "name": "重庆市第一中学校-西门", "lon": 106.468937, "lat": 29.566332, "area": "沙坪坝区", "address": "重庆市沙坪坝区沙坪坝南街2号" }, "geometry": { "type": "Point", "coordinates": [ 106.45849, 29.5628 ] } },
{ "type": "Feature", "properties": { "fid": 8, "学校名称": "南开中学 ", "地区": "沙坪坝区", "name": "南开中学-东门", "lon": 106.468406, "lat": 29.567284, "area": "沙坪坝区", "address": "重庆市沙坪坝区沙坪坝南街1号" }, "geometry": { "type": "Point", "coordinates": [ 106.45796, 29.56374 ] } },
{ "type": "Feature", "properties": { "fid": 9, "学校名称": "重庆市第八中学沙坪坝校区 ", "地区": "沙坪坝区", "name": "重庆八中(沙坪坝站东路)", "lon": 106.471729, "lat": 29.560217, "area": "沙坪坝区", "address": "重庆市沙坪坝区小龙坎正街96号附3号4-1" }, "geometry": { "type": "Point", "coordinates": [ 106.46128, 29.55674 ] } },
{ "type": "Feature", "properties": { "fid": 10, "学校名称": "凤鸣山中学 ", "地区": "沙坪坝区", "name": "重庆市凤鸣山中学", "lon": 106.455153, "lat": 29.534966, "area": "沙坪坝区", "address": "重庆市沙坪坝区凤天大道150号" }, "geometry": { "type": "Point", "coordinates": [ 106.44474, 29.53126 ] } },
{ "type": "Feature", "properties": { "fid": 11, "学校名称": "重庆市第七中学 ", "地区": "沙坪坝区", "name": "重庆市第七中学校", "lon": 106.470322, "lat": 29.577373, "area": "沙坪坝区", "address": "重庆市沙坪坝区沙坪坝北街94号" }, "geometry": { "type": "Point", "coordinates": [ 106.45988, 29.57387 ] } },
{ "type": "Feature", "properties": { "fid": 12, "学校名称": "青木关中学 ", "地区": "沙坪坝区", "name": "重庆市青木关中学校", "lon": 106.306692, "lat": 29.679139, "area": "沙坪坝区", "address": "重庆市沙坪坝区青木关镇新青路315号" }, "geometry": { "type": "Point", "coordinates": [ 106.29639, 29.67562 ] } },
{ "type": "Feature", "properties": { "fid": 13, "学校名称": "天星桥中学 ", "地区": "沙坪坝区", "name": "重庆市天星桥中学", "lon": 106.458406, "lat": 29.550121, "area": "沙坪坝区", "address": "重庆市沙坪坝区天星桥正街82号" }, "geometry": { "type": "Point", "coordinates": [ 106.44798, 29.54644 ] } },
{ "type": "Feature", "properties": { "fid": 14, "学校名称": "重庆市第三十二中学 ", "地区": "沙坪坝区", "name": "重庆市三十二中(高中部)", "lon": 106.447842, "lat": 29.614172, "area": "沙坪坝区", "address": "重庆市沙坪坝区212国道工农坡22号" }, "geometry": { "type": "Point", "coordinates": [ 106.43744, 29.6104 ] } },
{ "type": "Feature", "properties": { "fid": 15, "学校名称": "重庆市第一实验中学 ", "地区": "沙坪坝区", "name": "重庆市第一实验中学校", "lon": 106.300205, "lat": 29.588168, "area": "沙坪坝区", "address": "重庆市沙坪坝区大学城南二路750号" }, "geometry": { "type": "Point", "coordinates": [ 106.28992, 29.58479 ] } },
{ "type": "Feature", "properties": { "fid": 16, "学校名称": "科学城巴蜀中学 ", "地区": "沙坪坝区", "name": "重庆巴蜀科学城中学", "lon": 106.292233, "lat": 29.602254, "area": "沙坪坝区", "address": "重庆市沙坪坝区虎溪街道学智路789号" }, "geometry": { "type": "Point", "coordinates": [ 106.28193, 29.59901 ] } },
{ "type": "Feature", "properties": { "fid": 17, "学校名称": "重庆树人中学 ", "地区": "沙坪坝区", "name": "重庆市树人中学校", "lon": 106.454626, "lat": 29.571017, "area": "沙坪坝区", "address": "重庆市沙坪坝区小杨公桥118号" }, "geometry": { "type": "Point", "coordinates": [ 106.4442, 29.56729 ] } },
{ "type": "Feature", "properties": { "fid": 18, "学校名称": "重庆市第三十七中学 ", "地区": "大渡口区", "name": "重庆37中A区", "lon": 106.490216, "lat": 29.478329, "area": "大渡口区", "address": "重庆市大渡口区钢花路874号" }, "geometry": { "type": "Point", "coordinates": [ 106.47977, 29.47523 ] } },
{ "type": "Feature", "properties": { "fid": 19, "学校名称": "田家炳中学 ", "地区": "九龙坡区", "name": "重庆市田家炳中学(B区)", "lon": 106.439786, "lat": 29.47147, "area": "九龙坡区", "address": "重庆市九龙坡区田坝新村65号" }, "geometry": { "type": "Point", "coordinates": [ 106.42937, 29.46775 ] } },
{ "type": "Feature", "properties": { "fid": 20, "学校名称": "育才中学 ", "地区": "九龙坡区", "name": "重庆育才中学(谢家湾校区)", "lon": 106.521192, "lat": 29.525145, "area": "九龙坡区", "address": "重庆市九龙坡区谢家湾正街92号" }, "geometry": { "type": "Point", "coordinates": [ 106.51081, 29.52213 ] } },
{ "type": "Feature", "properties": { "fid": 21, "学校名称": "重庆外国语学校 ", "地区": "九龙坡区", "name": "重庆外国语学校", "lon": 106.487703, "lat": 29.539146, "area": "九龙坡区", "address": "重庆市九龙坡区红育坡1号" }, "geometry": { "type": "Point", "coordinates": [ 106.47723, 29.53597 ] } },
{ "type": "Feature", "properties": { "fid": 22, "学校名称": "铁路中学 ", "地区": "九龙坡区", "name": "重庆市铁路中学校", "lon": 106.539113, "lat": 29.494581, "area": "九龙坡区", "address": "重庆市九龙坡区邮电路重庆电力高等专科学校北侧约70米" }, "geometry": { "type": "Point", "coordinates": [ 106.52888, 29.49137 ] } },
{ "type": "Feature", "properties": { "fid": 23, "学校名称": "杨家坪中学 ", "地区": "九龙坡区", "name": "杨家坪中学(彩云湖校区)", "lon": 106.485923, "lat": 29.520278, "area": "九龙坡区", "address": "重庆市九龙坡区科城路139号" }, "geometry": { "type": "Point", "coordinates": [ 106.47547, 29.51709 ] } },
{ "type": "Feature", "properties": { "fid": 24, "学校名称": "渝西中学 ", "地区": "九龙坡区", "name": "重庆市渝西中学", "lon": 106.320652, "lat": 29.305254, "area": "九龙坡区", "address": "重庆市九龙坡区永安路6号" }, "geometry": { "type": "Point", "coordinates": [ 106.31039, 29.30173 ] } },
{ "type": "Feature", "properties": { "fid": 25, "学校名称": "渝高中学 ", "地区": "九龙坡区", "name": "重庆市渝高中学校", "lon": 106.493712, "lat": 29.534497, "area": "九龙坡区", "address": "重庆市九龙坡区科园三街27号渝高公园旁" }, "geometry": { "type": "Point", "coordinates": [ 106.48324, 29.53142 ] } },
{ "type": "Feature", "properties": { "fid": 26, "学校名称": "巴蜀中学 ", "地区": "渝中区", "name": "巴蜀中学", "lon": 106.568577, "lat": 29.568555, "area": "渝中区", "address": "重庆市渝中区北区路51号(近黄花园大桥)" }, "geometry": { "type": "Point", "coordinates": [ 106.55844, 29.56509 ] } },
{ "type": "Feature", "properties": { "fid": 27, "学校名称": "求精中学 ", "地区": "渝中区", "name": "重庆市求精中学校教育集团", "lon": 106.553671, "lat": 29.569366, "area": "渝中区", "address": "重庆市渝中区中山四路重庆市渝中区德精小学校" }, "geometry": { "type": "Point", "coordinates": [ 106.54349, 29.56594 ] } },
{ "type": "Feature", "properties": { "fid": 28, "学校名称": "复旦中学 ", "地区": "渝中区", "name": "复旦中学", "lon": 106.583227, "lat": 29.557322, "area": "渝中区", "address": "重庆市渝中区凯旋路22号" }, "geometry": { "type": "Point", "coordinates": [ 106.57307, 29.554 ] } },
{ "type": "Feature", "properties": { "fid": 29, "学校名称": "重庆市第二十九中学 ", "地区": "渝中区", "name": "重庆二十九中学(解放碑校区)", "lon": 106.579351, "lat": 29.564496, "area": "渝中区", "address": "重庆市渝中区邹容路143号" }, "geometry": { "type": "Point", "coordinates": [ 106.56921, 29.56112 ] } },
{ "type": "Feature", "properties": { "fid": 30, "学校名称": "巴蜀中学张家花园校区 ", "地区": "渝中区", "name": "巴蜀中学(张家花园校区)", "lon": 106.564019, "lat": 29.564131, "area": "渝中区", "address": "重庆市渝中区大溪沟人和街华福巷52号" }, "geometry": { "type": "Point", "coordinates": [ 106.55388, 29.56066 ] } },
{ "type": "Feature", "properties": { "fid": 31, "学校名称": "重庆市第三十中学 ", "地区": "渝中区", "name": "重庆第三十中学校(长江一路)", "lon": 106.551439, "lat": 29.557019, "area": "渝中区", "address": "重庆市渝中区长江一路13号" }, "geometry": { "type": "Point", "coordinates": [ 106.54124, 29.55362 ] } },
{ "type": "Feature", "properties": { "fid": 32, "学校名称": "重庆市第八中学校(渝北校区)", "地区": "渝北区", "name": "重庆市第八中学校(渝北校区)", "lon": 106.637919, "lat": 29.762407, "area": "渝北区", "address": "重庆市渝北区中央公园北路8号" }, "geometry": { "type": "Point", "coordinates": [ 106.59545, 29.73056 ] } },
{ "type": "Feature", "properties": { "fid": 33, "学校名称": "渝北中学 ", "地区": "渝北区", "name": "重庆市渝北中学校-东北门", "lon": 106.638509, "lat": 29.762076, "area": "渝北区", "address": "重庆市渝北区桃源大道888号" }, "geometry": { "type": "Point", "coordinates": [ 106.6282, 29.75917 ] } },
{ "type": "Feature", "properties": { "fid": 34, "学校名称": "松树桥中学 ", "地区": "渝北区", "name": "重庆市松树桥中学校龙溪校区(A校区)", "lon": 106.518166, "lat": 29.593467, "area": "渝北区", "address": "重庆市渝北区松桥路169号" }, "geometry": { "type": "Point", "coordinates": [ 106.50777, 29.59046 ] } },
{ "type": "Feature", "properties": { "fid": 35, "学校名称": "暨华中学 ", "地区": "渝北区", "name": "重庆市暨华中学校", "lon": 106.629926, "lat": 29.718574, "area": "渝北区", "address": "重庆市渝北区双龙湖街道龙吉街98号" }, "geometry": { "type": "Point", "coordinates": [ 106.61963, 29.71574 ] } },
{ "type": "Feature", "properties": { "fid": 36, "学校名称": "南华中学 ", "地区": "渝北区", "name": "重庆市南华中学-综合楼", "lon": 106.630724, "lat": 29.727092, "area": "渝北区", "address": "重庆市渝北区双凤桥街道汉渝路44号" }, "geometry": { "type": "Point", "coordinates": [ 106.62043, 29.72425 ] } },
{ "type": "Feature", "properties": { "fid": 37, "学校名称": "两江中学 ", "地区": "渝北区", "name": "重庆南开两江中学", "lon": 106.808803, "lat": 29.694726, "area": "渝北区", "address": "重庆市渝北区龙驿大道209号" }, "geometry": { "type": "Point", "coordinates": [ 106.79839, 29.69112 ] } },
{ "type": "Feature", "properties": { "fid": 38, "学校名称": "华蓥中学 ", "地区": "渝北区", "name": "重庆市华蓥中学校", "lon": 106.747206, "lat": 29.987087, "area": "渝北区", "address": "重庆市渝北区竹松路31号" }, "geometry": { "type": "Point", "coordinates": [ 106.73662, 29.98406 ] } },
{ "type": "Feature", "properties": { "fid": 39, "学校名称": "巴蜀常春藤学校 ", "地区": "渝北区", "name": "重庆巴蜀常春藤学校", "lon": 106.677656, "lat": 29.79594, "area": "渝北区", "address": "重庆市渝北区空港东路766号" }, "geometry": { "type": "Point", "coordinates": [ 106.66656, 29.79016 ] } },
{ "type": "Feature", "properties": { "fid": 40, "学校名称": "两江南开中学 ", "地区": "渝北区", "name": "重庆南开两江中学", "lon": 106.808803, "lat": 29.694726, "area": "渝北区", "address": "重庆市渝北区龙驿大道209号" }, "geometry": { "type": "Point", "coordinates": [ 106.79839, 29.69112 ] } },
{ "type": "Feature", "properties": { "fid": 41, "学校名称": "两江育才中学 ", "地区": "渝北区", "name": "重庆两江育才中学(鸳鸯校区)", "lon": 106.56327, "lat": 29.670517, "area": "渝北区", "address": "重庆市渝北区鸳鸯北路23号" }, "geometry": { "type": "Point", "coordinates": [ 106.55312, 29.66702 ] } },
{ "type": "Feature", "properties": { "fid": 42, "学校名称": "礼嘉中学 ", "地区": "渝北区", "name": "重庆市礼嘉中学校", "lon": 106.504398, "lat": 29.678831, "area": "渝北区", "address": "重庆市渝北区礼嘉街道礼智街22号" }, "geometry": { "type": "Point", "coordinates": [ 106.49392, 29.6758 ] } },
{ "type": "Feature", "properties": { "fid": 43, "学校名称": "两江新区西南大学附属中学 ", "地区": "渝北区", "name": "西大两江实验学校", "lon": 106.514242, "lat": 29.704519, "area": "北碚区", "address": "重庆市北碚区长平路666号" }, "geometry": { "type": "Point", "coordinates": [ 106.50381, 29.7015 ] } },
{ "type": "Feature", "properties": { "fid": 44, "学校名称": "重庆第一双语学校 ", "地区": "渝北区", "name": "重庆一中(双语校区)", "lon": 106.541011, "lat": 29.664752, "area": "渝北区", "address": "重庆市渝北区湖霞街2号" }, "geometry": { "type": "Point", "coordinates": [ 106.53075, 29.66144 ] } },
{ "type": "Feature", "properties": { "fid": 45, "学校名称": "金溪八中 ", "地区": "渝北区", "name": "重庆市八中两江金溪中学校", "lon": 106.586218, "lat": 29.668963, "area": "渝北区", "address": "重庆市渝北区湖影街1号" }, "geometry": { "type": "Point", "coordinates": [ 106.57605, 29.66565 ] } },
{ "type": "Feature", "properties": { "fid": 46, "学校名称": "重庆两江新区西大附中星辰学校 ", "地区": "渝北区", "name": "重庆两江新区西大附中星辰学校", "lon": 106.528629, "lat": 29.641541, "area": "渝北区", "address": "重庆市渝北区怡景路96号" }, "geometry": { "type": "Point", "coordinates": [ 106.5183, 29.63841 ] } },
{ "type": "Feature", "properties": { "fid": 47, "学校名称": "两江巴蜀初中 ", "地区": "渝北区", "name": "两江新区巴蜀中学(嘉和校区)", "lon": 106.472494, "lat": 29.689445, "area": "渝北区", "address": "重庆市渝北区两江新区礼嘉镇嘉和街道" }, "geometry": { "type": "Point", "coordinates": [ 106.46204, 29.68595 ] } },
{ "type": "Feature", "properties": { "fid": 48, "学校名称": "竹林实验学校 ", "地区": "渝北区", "name": "重庆竹林实验学校", "lon": 106.483321, "lat": 29.627645, "area": "渝北区", "address": "重庆市渝北区楠竹路6号" }, "geometry": { "type": "Point", "coordinates": [ 106.47287, 29.62437 ] } },
{ "type": "Feature", "properties": { "fid": 49, "学校名称": "重庆市第十八中学 ", "地区": "江北区", "name": "重庆市第十八中学(观音桥校区)", "lon": 106.548222, "lat": 29.581026, "area": "江北区", "address": "重庆市江北区建新东路120号" }, "geometry": { "type": "Point", "coordinates": [ 106.53802, 29.57765 ] } },
{ "type": "Feature", "properties": { "fid": 50, "学校名称": "重庆市第二〇三中学校 ", "地区": "南岸区", "name": "重庆市第二外国语学校", "lon": 106.616468, "lat": 29.547588, "area": "南岸区", "address": "重庆市南岸区崇文路26号" }, "geometry": { "type": "Point", "coordinates": [ 106.60618, 29.54476 ] } },
{ "type": "Feature", "properties": { "fid": 51, "学校名称": "字水中学 ", "地区": "南岸区", "name": "重庆市字水中学(玉带山校区)", "lon": 106.484874, "lat": 29.584537, "area": "江北区", "address": "重庆市江北区盘溪一支路370号" }, "geometry": { "type": "Point", "coordinates": [ 106.47441, 29.5813 ] } },
{ "type": "Feature", "properties": { "fid": 52, "学校名称": "鲁能巴蜀中学 ", "地区": "南岸区", "name": "重庆鲁能巴蜀中学", "lon": 106.571601, "lat": 29.605782, "area": "江北区", "address": "重庆市江北区新溉大道889号" }, "geometry": { "type": "Point", "coordinates": [ 106.5615, 29.60233 ] } },
{ "type": "Feature", "properties": { "fid": 53, "学校名称": "望江中学 ", "地区": "南岸区", "name": "重庆市望江中学校(过渡校区)", "lon": 106.724448, "lat": 29.600345, "area": "江北区", "address": "重庆市江北区福宏大道与郭兴路交叉路口往北约250米" }, "geometry": { "type": "Point", "coordinates": [ 106.71398, 29.5972 ] } },
{ "type": "Feature", "properties": { "fid": 54, "学校名称": "蜀都中学 ", "地区": "南岸区", "name": "重庆蜀都中学", "lon": 106.527559, "lat": 29.577305, "area": "江北区", "address": "重庆市江北区观音桥街道小苑一村21号" }, "geometry": { "type": "Point", "coordinates": [ 106.51721, 29.57421 ] } },
{ "type": "Feature", "properties": { "fid": 55, "学校名称": "巴川量子中学 ", "地区": "南岸区", "name": "巴川量子中学", "lon": 106.572381, "lat": 29.598273, "area": "江北区", "address": "重庆市江北区新溉大道巴川量子中学" }, "geometry": { "type": "Point", "coordinates": [ 106.5626, 29.59445 ] } },
{ "type": "Feature", "properties": { "fid": 56, "学校名称": "重庆市第十一中学校 ", "地区": "南岸区", "name": "重庆市第十一中学校", "lon": 106.606525, "lat": 29.588419, "area": "南岸区", "address": "重庆市南岸区弹子石一村159号" }, "geometry": { "type": "Point", "coordinates": [ 106.59629, 29.58547 ] } },
{ "type": "Feature", "properties": { "fid": 57, "学校名称": "南坪中学 ", "地区": "南岸区", "name": "重庆市南坪中学校", "lon": 106.573535, "lat": 29.520979, "area": "南岸区", "address": "重庆市南岸区白鹤路138号" }, "geometry": { "type": "Point", "coordinates": [ 106.56343, 29.51757 ] } },
{ "type": "Feature", "properties": { "fid": 58, "学校名称": "广益中学 ", "地区": "南岸区", "name": "重庆市广益中学", "lon": 106.606946, "lat": 29.539217, "area": "南岸区", "address": "重庆市南岸区黄桷垭文峰段78号" }, "geometry": { "type": "Point", "coordinates": [ 106.5967, 29.53629 ] } },
{ "type": "Feature", "properties": { "fid": 59, "学校名称": "辅仁中学 ", "地区": "南岸区", "name": "重庆市辅仁中学校", "lon": 106.585922, "lat": 29.536101, "area": "南岸区", "address": "重庆市南岸区海棠溪烟雨路344号" }, "geometry": { "type": "Point", "coordinates": [ 106.57577, 29.53283 ] } },
{ "type": "Feature", "properties": { "fid": 60, "学校名称": "长生桥中学 ", "地区": "南岸区", "name": "长生桥中学", "lon": 106.667986, "lat": 29.518842, "area": "南岸区", "address": "重庆市南岸区黄明路上锦星城北(长生桥地铁站东)" }, "geometry": { "type": "Point", "coordinates": [ 106.65775, 29.51551 ] } },
{ "type": "Feature", "properties": { "fid": 61, "学校名称": "南开（融侨）中学 ", "地区": "南岸区", "name": "南开(融侨)中学", "lon": 106.549179, "lat": 29.532211, "area": "南岸区", "address": "重庆市南岸区风临路10号" }, "geometry": { "type": "Point", "coordinates": [ 106.53899, 29.52885 ] } },
{ "type": "Feature", "properties": { "fid": 62, "学校名称": "鱼洞中学 ", "地区": "巴南区", "name": "重庆市鱼洞中学校", "lon": 106.512777, "lat": 29.386805, "area": "巴南区", "address": "重庆市渝北区中央公园北路8号" }, "geometry": { "type": "Point", "coordinates": [ 106.50164, 29.385 ] } },
{ "type": "Feature", "properties": { "fid": 63, "学校名称": "重庆市实验中学 ", "地区": "巴南区", "name": "重庆市实验中学校", "lon": 106.519974, "lat": 29.39485, "area": "巴南区", "address": "重庆市巴南区黄溪口18号" }, "geometry": { "type": "Point", "coordinates": [ 106.50981, 29.39187 ] } },
{ "type": "Feature", "properties": { "fid": 64, "学校名称": "清华中学 ", "地区": "巴南区", "name": "重庆清华中学", "lon": 106.543064, "lat": 29.460196, "area": "巴南区", "address": "重庆市巴南区花溪街道花溪村3号" }, "geometry": { "type": "Point", "coordinates": [ 106.53284, 29.45694 ] } },
{ "type": "Feature", "properties": { "fid": 65, "学校名称": "巴南中学 ", "地区": "巴南区", "name": "重庆市巴南中学校", "lon": 106.556216, "lat": 29.465971, "area": "巴南区", "address": "重庆市巴南区龙洲大道2346号" }, "geometry": { "type": "Point", "coordinates": [ 106.54607, 29.46258 ] } },
{ "type": "Feature", "properties": { "fid": 66, "学校名称": "木洞中学", "地区": "巴南区", "name": "重庆市木洞中学", "lon": 106.85376, "lat": 29.576157, "area": "巴南区", "address": "重庆市巴南区前进路29号" }, "geometry": { "type": "Point", "coordinates": [ 106.84326, 29.57323 ] } },
{ "type": "Feature", "properties": { "fid": 67, "学校名称": "西南大学附属中学校", "地区": null, "name": "西南大学附属中学(东区)", "lon": null, "lat": null, "area": null, "address": "重庆市北碚区云汉大道326号" }, "geometry": { "type": "Point", "coordinates": [ 106.53989, 29.83213 ] } },
{ "type": "Feature", "properties": { "fid": 68, "学校名称": null, "地区": null, "name": "重庆市江北中学思源校区", "lon": null, "lat": null, "area": null, "address": "重庆市北碚区竹溪东路与和源三支路交叉口东北200米" }, "geometry": { "type": "Point", "coordinates": [ 106.54347, 29.8003 ] } },
{ "type": "Feature", "properties": { "fid": 69, "学校名称": "西南大学附属中学悦来校区", "地区": null, "name": "西南大学附属中学(悦来校区)", "lon": null, "lat": null, "area": "渝北区", "address": "重庆市渝北区悦城路333号" }, "geometry": { "type": "Point", "coordinates": [ 106.53613, 29.70197 ] } }
]
}
